linear:
  x: 0.19283761084079742
  y: -0.12398889660835266
  z: 0.0
angular:
  x: 0.0
  y: 0.0
  z: -0.9388977885246277
---
linear:
  x: 0.21336676180362701
  y: -0.12336942553520203
  z: 0.0
angular:
  x: 0.0
  y: 0.0
  z: -0.930980384349823
---
linear:
  x: 0.23806510865688324
  y: -0.12158649414777756
  z: 0.0
angular:
  x: 0.0
  y: 0.0
  z: -0.9043004512786865
---
linear:
  x: 0.26019731163978577
  y: -0.120712049305439
  z: 0.0
angular:
  x: 0.0
  y: 0.0
  z: -0.900855541229248
---
linear:
  x: 0.28442662954330444
  y: -0.11847051233053207
  z: 0.0
angular:
  x: 0.0
  y: 0.0
  z: -0.8743141889572144
---
linear:
  x: 0.30653324723243713
  y: -0.11723518371582031
  z: 0.0
angular:
  x: 0.0
  y: 0.0
  z: -0.868145227432251
---
linear:
  x: 0.3290240168571472
  y: -0.1151982769370079
  z: 0.0
angular:
  x: 0.0
  y: 0.0
  z: -0.8415793776512146
---
linear:
  x: 0.3490135967731476
  y: -0.11409929394721985
  z: 0.0
angular:
  x: 0.0
  y: 0.0
  z: -0.8340258002281189
---
linear:
  x: 0.36976858973503113
  y: -0.11117397248744965
  z: 0.0
angular:
  x: 0.0
  y: 0.0
  z: -0.7991323471069336
---
linear:
  x: 0.38661274313926697
  y: -0.11031753569841385
  z: 0.0
angular:
  x: 0.0
  y: 0.0
  z: -0.7884002327919006
---
linear:
  x: 0.40144217014312744
  y: -0.10918139666318893
  z: 0.0
angular:
  x: 0.0
  y: 0.0
  z: -0.7603650093078613
---
linear:
  x: 0.41396206617355347
  y: -0.1094052717089653
  z: 0.0
angular:
  x: 0.0
  y: 0.0
  z: -0.7543981075286865
---
linear:
  x: 0.4259796738624573
  y: -0.10655103623867035
  z: 0.0
angular:
  x: 0.0
  y: 0.0
  z: -0.7171866297721863
---
linear:
  x: 0.4356963336467743
  y: -0.1053454801440239
  z: 0.0
angular:
  x: 0.0
  y: 0.0
  z: -0.7053732872009277
---
linear:
  x: 0.44557812809944153
  y: -0.1027652844786644
  z: 0.0
angular:
  x: 0.0
  y: 0.0
  z: -0.6712785959243774
---
linear:
  x: 0.4547193646430969
  y: -0.1006440818309784
  z: 0.0
angular:
  x: 0.0
  y: 0.0
  z: -0.6555064916610718
---
linear:
  x: 0.4634401798248291
  y: -0.0973682627081871
  z: 0.0
angular:
  x: 0.0
  y: 0.0
  z: -0.6219536662101746
---
linear:
  x: 0.4701554775238037
  y: -0.09538305550813675
  z: 0.0
angular:
  x: 0.0
  y: 0.0
  z: -0.6080400943756104
---
linear:
  x: 0.4763059616088867
  y: -0.09245473146438599
  z: 0.0
angular:
  x: 0.0
  y: 0.0
  z: -0.5764501094818115
---
linear:
  x: 0.4801868200302124
  y: -0.09148919582366943
  z: 0.0
angular:
  x: 0.0
  y: 0.0
  z: -0.5690467357635498
---
linear:
  x: 0.4830591082572937
  y: -0.0899965688586235
  z: 0.0
angular:
  x: 0.0
  y: 0.0
  z: -0.5464398860931396
---
linear:
  x: 0.4853345453739166
  y: -0.0891786739230156
  z: 0.0
angular:
  x: 0.0
  y: 0.0
  z: -0.5407613515853882
---
linear:
  x: 0.4878135323524475
  y: -0.08748933672904968
  z: 0.0
angular:
  x: 0.0
  y: 0.0
  z: -0.5163672566413879
---
linear:
  x: 0.4898476004600525
  y: -0.08665473759174347
  z: 0.0
angular:
  x: 0.0
  y: 0.0
  z: -0.5086531043052673
---
linear:
  x: 0.4926193356513977
  y: -0.084162637591362
  z: 0.0
angular:
  x: 0.0
  y: 0.0
  z: -0.4733755886554718
---
linear:
  x: 0.49439531564712524
  y: -0.08288450539112091
  z: 0.0
angular:
  x: 0.0
  y: 0.0
  z: -0.4579620063304901
---
linear:
  x: 0.49646610021591187
  y: -0.08061040937900543
  z: 0.0
angular:
  x: 0.0
  y: 0.0
  z: -0.4277033507823944
---
linear:
  x: 0.4974885582923889
  y: -0.07954048365354538
  z: 0.0
angular:
  x: 0.0
  y: 0.0
  z: -0.4195238947868347
---
linear:
  x: 0.49837732315063477
  y: -0.0776176005601883
  z: 0.0
angular:
  x: 0.0
  y: 0.0
  z: -0.39713209867477417
---
linear:
  x: 0.4990741014480591
  y: -0.07672799378633499
  z: 0.0
angular:
  x: 0.0
  y: 0.0
  z: -0.39385420083999634
---
linear:
  x: 0.4995841979980469
  y: -0.07499539107084274
  z: 0.0
angular:
  x: 0.0
  y: 0.0
  z: -0.37385863065719604
---
linear:
  x: 0.4999309778213501
  y: -0.07416698336601257
  z: 0.0
angular:
  x: 0.0
  y: 0.0
  z: -0.3706827759742737
---
linear:
  x: 0.5
  y: -0.06855959445238113
  z: 0.0
angular:
  x: 0.0
  y: 0.0
  z: -0.3189052641391754
---
linear:
  x: 0.49846524000167847
  y: -0.06739969551563263
  z: 0.0
angular:
  x: 0.0
  y: 0.0
  z: -0.3164594769477844
---
linear:
  x: 0.49805575609207153
  y: -0.06389939785003662
  z: 0.0
angular:
  x: 0.0
  y: 0.0
  z: -0.2882930040359497
---
linear:
  x: 0.49780887365341187
  y: -0.0621940940618515
  z: 0.0
angular:
  x: 0.0
  y: 0.0
  z: -0.2832639813423157
---
linear:
  x: 0.4987003207206726
  y: -0.059560663998126984
  z: 0.0
angular:
  x: 0.0
  y: 0.0
  z: -0.26209741830825806
---
linear:
  x: 0.4995669722557068
  y: -0.058179423213005066
  z: 0.0
angular:
  x: 0.0
  y: 0.0
  z: -0.2582198977470398
---
linear:
  x: 0.49998265504837036
  y: -0.056021109223365784
  z: 0.0
angular:
  x: 0.0
  y: 0.0
  z: -0.24049602448940277
---
linear:
  x: 0.5
  y: -0.056043725460767746
  z: 0.0
angular:
  x: 0.0
  y: 0.0
  z: -0.24558904767036438
---
linear:
  x: 0.5
  y: -0.055127937346696854
  z: 0.0
angular:
  x: 0.0
  y: 0.0
  z: -0.23429889976978302
---
linear:
  x: 0.5
  y: -0.05526105687022209
  z: 0.0
angular:
  x: 0.0
  y: 0.0
  z: -0.23872274160385132
---
linear:
  x: 0.5
  y: -0.054375894367694855
  z: 0.0
angular:
  x: 0.0
  y: 0.0
  z: -0.227247953414917
---
linear:
  x: 0.499997615814209
  y: -0.05480920895934105
  z: 0.0
angular:
  x: 0.0
  y: 0.0
  z: -0.23642803728580475
---
linear:
  x: 0.49999576807022095
  y: -0.05435800552368164
  z: 0.0
angular:
  x: 0.0
  y: 0.0
  z: -0.23127397894859314
---
linear:
  x: 0.49999725818634033
  y: -0.05450919270515442
  z: 0.0
angular:
  x: 0.0
  y: 0.0
  z: -0.23773017525672913
---
linear:
  x: 0.49999892711639404
  y: -0.053665272891521454
  z: 0.0
angular:
  x: 0.0
  y: 0.0
  z: -0.2275487780570984
---
linear:
  x: 0.49999988079071045
  y: -0.05364644527435303
  z: 0.0
angular:
  x: 0.0
  y: 0.0
  z: -0.23042157292366028
---
linear:
  x: 0.5
  y: -0.05323636159300804
  z: 0.0
angular:
  x: 0.0
  y: 0.0
  z: -0.2265797257423401
---
linear:
  x: 0.5
  y: -0.053442712873220444
  z: 0.0
angular:
  x: 0.0
  y: 0.0
  z: -0.232422336935997
---
linear:
  x: 0.5
  y: -0.05274955928325653
  z: 0.0
angular:
  x: 0.0
  y: 0.0
  z: -0.22176797688007355
---
linear:
  x: 0.5
  y: -0.052958521991968155
  z: 0.0
angular:
  x: 0.0
  y: 0.0
  z: -0.22353987395763397
---
linear:
  x: 0.4999999403953552
  y: -0.05216887593269348
  z: 0.0
angular:
  x: 0.0
  y: 0.0
  z: -0.20908823609352112
---
linear:
  x: 0.4996148943901062
  y: -0.05200484022498131
  z: 0.0
angular:
  x: 0.0
  y: 0.0
  z: -0.21341276168823242
---
linear:
  x: 0.49984174966812134
  y: -0.05139748379588127
  z: 0.0
angular:
  x: 0.0
  y: 0.0
  z: -0.20228751003742218
---
linear:
  x: 0.49990367889404297
  y: -0.050813935697078705
  z: 0.0
angular:
  x: 0.0
  y: 0.0
  z: -0.20018352568149567
---
linear:
  x: 0.4999921917915344
  y: -0.04943264648318291
  z: 0.0
angular:
  x: 0.0
  y: 0.0
  z: -0.1843402087688446
---
linear:
  x: 0.5
  y: -0.04837562143802643
  z: 0.0
angular:
  x: 0.0
  y: 0.0
  z: -0.17871180176734924
---
linear:
  x: 0.5
  y: -0.045908696949481964
  z: 0.0
angular:
  x: 0.0
  y: 0.0
  z: -0.14998933672904968
---
linear:
  x: 0.5
  y: -0.045029494911432266
  z: 0.0
angular:
  x: 0.0
  y: 0.0
  z: -0.1459958851337433
---
linear:
  x: 0.5
  y: -0.043109994381666183
  z: 0.0
angular:
  x: 0.0
  y: 0.0
  z: -0.12777219712734222
---
linear:
  x: 0.4999999403953552
  y: -0.04244140163064003
  z: 0.0
angular:
  x: 0.0
  y: 0.0
  z: -0.1266574114561081
---
linear:
  x: 0.499999463558197
  y: -0.04059832543134689
  z: 0.0
angular:
  x: 0.0
  y: 0.0
  z: -0.10926294326782227
---
linear:
  x: 0.4999995827674866
  y: -0.03955421224236488
  z: 0.0
angular:
  x: 0.0
  y: 0.0
  z: -0.1045927032828331
---
linear:
  x: 0.4999998211860657
  y: -0.03765908628702164
  z: 0.0
angular:
  x: 0.0
  y: 0.0
  z: -0.08890847116708755
---
linear:
  x: 0.4999999403953552
  y: -0.0365811325609684
  z: 0.0
angular:
  x: 0.0
  y: 0.0
  z: -0.08626936376094818
---
linear:
  x: 0.5
  y: -0.03467268869280815
  z: 0.0
angular:
  x: 0.0
  y: 0.0
  z: -0.07316409051418304
---
linear:
  x: 0.5
  y: -0.03233418986201286
  z: 0.0
angular:
  x: 0.0
  y: 0.0
  z: -0.057576701045036316
---
linear:
  x: 0.4999999403953552
  y: -0.02951013296842575
  z: 0.0
angular:
  x: 0.0
  y: 0.0
  z: -0.038265764713287354
---
linear:
  x: 0.4999999403953552
  y: -0.027329344302415848
  z: 0.0
angular:
  x: 0.0
  y: 0.0
  z: -0.030260169878602028
---
linear:
  x: 0.4999999403953552
  y: -0.024745935574173927
  z: 0.0
angular:
  x: 0.0
  y: 0.0
  z: -0.01713763363659382
---
linear:
  x: 0.4999999403953552
  y: -0.022767480462789536
  z: 0.0
angular:
  x: 0.0
  y: 0.0
  z: -0.011681952513754368
---
linear:
  x: 0.4999999403953552
  y: -0.018483856692910194
  z: 0.0
angular:
  x: 0.0
  y: 0.0
  z: 0.01562507450580597
---
linear:
  x: 0.4999999403953552
  y: -0.017485162243247032
  z: 0.0
angular:
  x: 0.0
  y: 0.0
  z: 0.002465327735990286
---
linear:
  x: 0.4999999403953552
  y: -0.016749752685427666
  z: 0.0
angular:
  x: 0.0
  y: 0.0
  z: 0.0005872305482625961
---
linear:
  x: 0.4999999403953552
  y: -0.01663558930158615
  z: 0.0
angular:
  x: 0.0
  y: 0.0
  z: -0.0028718372341245413
---
linear:
  x: 0.4999999403953552
  y: -0.01635606214404106
  z: 0.0
angular:
  x: 0.0
  y: 0.0
  z: 0.0007210446055978537
---
linear:
  x: 0.4999999403953552
  y: -0.014860180206596851
  z: 0.0
angular:
  x: 0.0
  y: 0.0
  z: 0.015089455991983414
---
linear:
  x: 0.4999999403953552
  y: -0.013242494314908981
  z: 0.0
angular:
  x: 0.0
  y: 0.0
  z: 0.025656843557953835
---
linear:
  x: 0.4999999403953552
  y: -0.01150559913367033
  z: 0.0
angular:
  x: 0.0
  y: 0.0
  z: 0.03347115218639374
---
linear:
  x: 0.4999999403953552
  y: -0.009560657665133476
  z: 0.0
angular:
  x: 0.0
  y: 0.0
  z: 0.040423281490802765
---
linear:
  x: 0.4999999403953552
  y: -0.00732955988496542
  z: 0.0
angular:
  x: 0.0
  y: 0.0
  z: 0.049334630370140076
---
linear:
  x: 0.4999999403953552
  y: -0.005101181101053953
  z: 0.0
angular:
  x: 0.0
  y: 0.0
  z: 0.05623481795191765
---
linear:
  x: 0.4999999403953552
  y: -0.002783450298011303
  z: 0.0
angular:
  x: 0.0
  y: 0.0
  z: 0.06482424587011337
---
linear:
  x: 0.4999999403953552
  y: -0.0007329296786338091
  z: 0.0
angular:
  x: 0.0
  y: 0.0
  z: 0.06997326016426086
---
linear:
  x: 0.4999999403953552
  y: 0.0014026373391970992
  z: 0.0
angular:
  x: 0.0
  y: 0.0
  z: 0.07892031967639923
---
linear:
  x: 0.4999999403953552
  y: 0.003902430646121502
  z: 0.0
angular:
  x: 0.0
  y: 0.0
  z: 0.08794277161359787
---
linear:
  x: 0.4999999403953552
  y: 0.006673967465758324
  z: 0.0
angular:
  x: 0.0
  y: 0.0
  z: 0.10157155990600586
---
linear:
  x: 0.49991291761398315
  y: 0.008873599581420422
  z: 0.0
angular:
  x: 0.0
  y: 0.0
  z: 0.1074087843298912
---
linear:
  x: 0.49998050928115845
  y: 0.01148756593465805
  z: 0.0
angular:
  x: 0.0
  y: 0.0
  z: 0.12031638622283936
---
linear:
  x: 0.49987393617630005
  y: 0.013343670405447483
  z: 0.0
angular:
  x: 0.0
  y: 0.0
  z: 0.12331367284059525
---
linear:
  x: 0.49997657537460327
  y: 0.015081848949193954
  z: 0.0
angular:
  x: 0.0
  y: 0.0
  z: 0.12953367829322815
---
linear:
  x: 0.4998685121536255
  y: 0.016172267496585846
  z: 0.0
angular:
  x: 0.0
  y: 0.0
  z: 0.12773369252681732
---
linear:
  x: 0.49997836351394653
  y: 0.01804148405790329
  z: 0.0
angular:
  x: 0.0
  y: 0.0
  z: 0.13768541812896729
---
linear:
  x: 0.499986469745636
  y: 0.01444895751774311
  z: 0.0
angular:
  x: 0.0
  y: 0.0
  z: 0.10418853163719177
---
linear:
  x: 0.5
  y: 0.01226255763322115
  z: 0.0
angular:
  x: 0.0
  y: 0.0
  z: 0.09855096787214279
---
linear:
  x: 0.5
  y: 0.009473955258727074
  z: 0.0
angular:
  x: 0.0
  y: 0.0
  z: 0.08820095658302307
---
linear:
  x: 0.5
  y: 0.00784598384052515
  z: 0.0
angular:
  x: 0.0
  y: 0.0
  z: 0.09129747748374939
---
linear:
  x: 0.5
  y: 0.00627903500571847
  z: 0.0
angular:
  x: 0.0
  y: 0.0
  z: 0.08858837932348251
---
linear:
  x: 0.5
  y: 0.005955513101071119
  z: 0.0
angular:
  x: 0.0
  y: 0.0
  z: 0.09633375704288483
---
linear:
  x: 0.4999997615814209
  y: 0.0052224574610590935
  z: 0.0
angular:
  x: 0.0
  y: 0.0
  z: 0.09388506412506104
---
linear:
  x: 0.4999998211860657
  y: 0.005176390055567026
  z: 0.0
angular:
  x: 0.0
  y: 0.0
  z: 0.09874183684587479
---
linear:
  x: 0.4999999403953552
  y: 0.005017927382141352
  z: 0.0
angular:
  x: 0.0
  y: 0.0
  z: 0.09858715534210205
---
linear:
  x: 0.4999999403953552
  y: 0.005802840925753117
  z: 0.0
angular:
  x: 0.0
  y: 0.0
  z: 0.10888561606407166
---
linear:
  x: 0.4999999403953552
  y: 0.006378247868269682
  z: 0.0
angular:
  x: 0.0
  y: 0.0
  z: 0.11149480193853378
---
linear:
  x: 0.4999999403953552
  y: 0.007894080132246017
  z: 0.0
angular:
  x: 0.0
  y: 0.0
  z: 0.1232120618224144
---
linear:
  x: 0.4999999403953552
  y: 0.00904968660324812
  z: 0.0
angular:
  x: 0.0
  y: 0.0
  z: 0.12586912512779236
---
linear:
  x: 0.49997812509536743
  y: 0.011056173592805862
  z: 0.0
angular:
  x: 0.0
  y: 0.0
  z: 0.139004647731781
---
linear:
  x: 0.49994421005249023
  y: 0.01244698092341423
  z: 0.0
angular:
  x: 0.0
  y: 0.0
  z: 0.141375333070755
---
linear:
  x: 0.4999379813671112
  y: 0.01467242930084467
  z: 0.0
angular:
  x: 0.0
  y: 0.0
  z: 0.1551230400800705
---
linear:
  x: 0.4999889135360718
  y: 0.01634247601032257
  z: 0.0
angular:
  x: 0.0
  y: 0.0
  z: 0.15964831411838531
---
linear:
  x: 0.49989748001098633
  y: 0.018761442974209785
  z: 0.0
angular:
  x: 0.0
  y: 0.0
  z: 0.17451712489128113
---
linear:
  x: 0.49965283274650574
  y: 0.02030325122177601
  z: 0.0
angular:
  x: 0.0
  y: 0.0
  z: 0.17561651766300201
---
linear:
  x: 0.4997258484363556
  y: 0.022847071290016174
  z: 0.0
angular:
  x: 0.0
  y: 0.0
  z: 0.19017401337623596
---
linear:
  x: 0.49938955903053284
  y: 0.024340294301509857
  z: 0.0
angular:
  x: 0.0
  y: 0.0
  z: 0.18930689990520477
---
linear:
  x: 0.4984838366508484
  y: 0.01490973960608244
  z: 0.0
angular:
  x: 0.0
  y: 0.0
  z: 0.09691496193408966
---
linear:
  x: 0.4985758662223816
  y: 0.00773618184030056
  z: 0.0
angular:
  x: 0.0
  y: 0.0
  z: 0.04129572957754135
---
linear:
  x: 0.49958258867263794
  y: 0.0019733516965061426
  z: 0.0
angular:
  x: 0.0
  y: 0.0
  z: 0.006795411463826895
---
linear:
  x: 0.4998934864997864
  y: -0.002990166889503598
  z: 0.0
angular:
  x: 0.0
  y: 0.0
  z: -0.015026343986392021
---
linear:
  x: 0.5
  y: -0.006956247612833977
  z: 0.0
angular:
  x: 0.0
  y: 0.0
  z: -0.02625918760895729
---
linear:
  x: 0.5
  y: -0.010190300643444061
  z: 0.0
angular:
  x: 0.0
  y: 0.0
  z: -0.03320673853158951
---
linear:
  x: 0.5
  y: -0.012499293312430382
  z: 0.0
angular:
  x: 0.0
  y: 0.0
  z: -0.03629083186388016
---
linear:
  x: 0.5
  y: -0.013887898996472359
  z: 0.0
angular:
  x: 0.0
  y: 0.0
  z: -0.03532592952251434
---
linear:
  x: 0.4999998211860657
  y: -0.014876073226332664
  z: 0.0
angular:
  x: 0.0
  y: 0.0
  z: -0.0357060432434082
---
linear:
  x: 0.4999966621398926
  y: -0.015543708577752113
  z: 0.0
angular:
  x: 0.0
  y: 0.0
  z: -0.0311189666390419
---
linear:
  x: 0.49999743700027466
  y: -0.016406860202550888
  z: 0.0
angular:
  x: 0.0
  y: 0.0
  z: -0.029550591483712196
---
linear:
  x: 0.4999988079071045
  y: -0.017012175172567368
  z: 0.0
angular:
  x: 0.0
  y: 0.0
  z: -0.024275444447994232
---
linear:
  x: 0.4999997019767761
  y: -0.01788325421512127
  z: 0.0
angular:
  x: 0.0
  y: 0.0
  z: -0.02228187769651413
---
linear:
  x: 0.5
  y: -0.018357936292886734
  z: 0.0
angular:
  x: 0.0
  y: 0.0
  z: -0.0152130126953125
---
linear:
  x: 0.5
  y: -0.018370328471064568
  z: 0.0
angular:
  x: 0.0
  y: 0.0
  z: -0.006957252509891987
---
linear:
  x: 0.5
  y: -0.018005238845944405
  z: 0.0
angular:
  x: 0.0
  y: 0.0
  z: 0.0041652037762105465
---
linear:
  x: 0.5
  y: -0.01770303212106228
  z: 0.0
angular:
  x: 0.0
  y: 0.0
  z: 0.01048007421195507
---
linear:
  x: 0.49969297647476196
  y: -0.01709688827395439
  z: 0.0
angular:
  x: 0.0
  y: 0.0
  z: 0.019034601747989655
---
linear:
  x: 0.4995046555995941
  y: -0.016537941992282867
  z: 0.0
angular:
  x: 0.0
  y: 0.0
  z: 0.025670310482382774
---
linear:
  x: 0.4989132583141327
  y: -0.01462607178837061
  z: 0.0
angular:
  x: 0.0
  y: 0.0
  z: 0.04237155243754387
---
linear:
  x: 0.4994494318962097
  y: -0.012331976555287838
  z: 0.0
angular:
  x: 0.0
  y: 0.0
  z: 0.07327965646982193
---
linear:
  x: 0.4978984594345093
  y: -0.011113177984952927
  z: 0.0
angular:
  x: 0.0
  y: 0.0
  z: 0.08551080524921417
---
linear:
  x: 0.49665749073028564
  y: -0.009594300761818886
  z: 0.0
angular:
  x: 0.0
  y: 0.0
  z: 0.10022871941328049
---
linear:
  x: 0.49553540349006653
  y: -0.008099113591015339
  z: 0.0
angular:
  x: 0.0
  y: 0.0
  z: 0.11080527305603027
---
linear:
  x: 0.49314621090888977
  y: -0.006371543277055025
  z: 0.0
angular:
  x: 0.0
  y: 0.0
  z: 0.11912091821432114
---
linear:
  x: 0.4899333119392395
  y: -0.003728549461811781
  z: 0.0
angular:
  x: 0.0
  y: 0.0
  z: 0.13527248799800873
---
linear:
  x: 0.48645371198654175
  y: -0.001550343120470643
  z: 0.0
angular:
  x: 0.0
  y: 0.0
  z: 0.14110787212848663
---
linear:
  x: 0.48284536600112915
  y: 0.0013832275290042162
  z: 0.0
angular:
  x: 0.0
  y: 0.0
  z: 0.15482835471630096
---
linear:
  x: 0.47895675897598267
  y: 0.0037100771442055702
  z: 0.0
angular:
  x: 0.0
  y: 0.0
  z: 0.15874306857585907
---
linear:
  x: 0.4754010736942291
  y: 0.006550912745296955
  z: 0.0
angular:
  x: 0.0
  y: 0.0
  z: 0.16946053504943848
---
linear:
  x: 0.4719775915145874
  y: 0.008458836004137993
  z: 0.0
angular:
  x: 0.0
  y: 0.0
  z: 0.17000804841518402
---
linear:
  x: 0.4691603183746338
  y: 0.01139134168624878
  z: 0.0
angular:
  x: 0.0
  y: 0.0
  z: 0.18352293968200684
---
linear:
  x: 0.46597057580947876
  y: 0.013322685845196247
  z: 0.0
angular:
  x: 0.0
  y: 0.0
  z: 0.1838461011648178
---
linear:
  x: 0.4628537893295288
  y: 0.016731388866901398
  z: 0.0
angular:
  x: 0.0
  y: 0.0
  z: 0.19721494615077972
---
linear:
  x: 0.46065354347229004
  y: 0.01675613410770893
  z: 0.0
angular:
  x: 0.0
  y: 0.0
  z: 0.18229739367961884
---
linear:
  x: 0.45820969343185425
  y: 0.018519295379519463
  z: 0.0
angular:
  x: 0.0
  y: 0.0
  z: 0.19031721353530884
---
linear:
  x: 0.45582354068756104
  y: 0.01891709864139557
  z: 0.0
angular:
  x: 0.0
  y: 0.0
  z: 0.18386276066303253
---
linear:
  x: 0.45355749130249023
  y: 0.021272212266921997
  z: 0.0
angular:
  x: 0.0
  y: 0.0
  z: 0.1957673877477646
---
linear:
  x: 0.4507817327976227
  y: 0.022441256791353226
  z: 0.0
angular:
  x: 0.0
  y: 0.0
  z: 0.19433945417404175
---
linear:
  x: 0.44919851422309875
  y: 0.02343630976974964
  z: 0.0
angular:
  x: 0.0
  y: 0.0
  z: 0.19955949485301971
---
linear:
  x: 0.44792449474334717
  y: 0.02356295846402645
  z: 0.0
angular:
  x: 0.0
  y: 0.0
  z: 0.19504685699939728
---
linear:
  x: 0.44888797402381897
  y: 0.020061993971467018
  z: 0.0
angular:
  x: 0.0
  y: 0.0
  z: 0.17715984582901
---
linear:
  x: 0.4490382671356201
  y: 0.015996113419532776
  z: 0.0
angular:
  x: 0.0
  y: 0.0
  z: 0.16203151643276215
---
linear:
  x: 0.44862109422683716
  y: 0.012909706681966782
  z: 0.0
angular:
  x: 0.0
  y: 0.0
  z: 0.16321593523025513
---
linear:
  x: 0.44832125306129456
  y: 0.00979029294103384
  z: 0.0
angular:
  x: 0.0
  y: 0.0
  z: 0.16010276973247528
---
linear:
  x: 0.44700363278388977
  y: 0.008220717310905457
  z: 0.0
angular:
  x: 0.0
  y: 0.0
  z: 0.16892817616462708
---
linear:
  x: 0.4455225467681885
  y: 0.007014703471213579
  z: 0.0
angular:
  x: 0.0
  y: 0.0
  z: 0.17065180838108063
---
linear:
  x: 0.4428899586200714
  y: 0.006907426752150059
  z: 0.0
angular:
  x: 0.0
  y: 0.0
  z: 0.1808769553899765
---
linear:
  x: 0.4420277774333954
  y: 0.0059392717666924
  z: 0.0
angular:
  x: 0.0
  y: 0.0
  z: 0.18276382982730865
---
linear:
  x: 0.43996989727020264
  y: 0.005312444642186165
  z: 0.0
angular:
  x: 0.0
  y: 0.0
  z: 0.19049997627735138
---
linear:
  x: 0.43885645270347595
  y: 0.004043844994157553
  z: 0.0
angular:
  x: 0.0
  y: 0.0
  z: 0.1925022304058075
---
linear:
  x: 0.43703290820121765
  y: 0.0038578971289098263
  z: 0.0
angular:
  x: 0.0
  y: 0.0
  z: 0.20265695452690125
---
linear:
  x: 0.4357791543006897
  y: 0.0028666506987065077
  z: 0.0
angular:
  x: 0.0
  y: 0.0
  z: 0.20406083762645721
---
linear:
  x: 0.43510758876800537
  y: 0.0015169000253081322
  z: 0.0
angular:
  x: 0.0
  y: 0.0
  z: 0.2052726000547409
---
linear:
  x: 0.43503478169441223
  y: 0.00012241990771144629
  z: 0.0
angular:
  x: 0.0
  y: 0.0
  z: 0.20460917055606842
---
linear:
  x: 0.43380308151245117
  y: -0.0005170858930796385
  z: 0.0
angular:
  x: 0.0
  y: 0.0
  z: 0.21280118823051453
---
linear:
  x: 0.4334907829761505
  y: -0.0013615856878459454
  z: 0.0
angular:
  x: 0.0
  y: 0.0
  z: 0.21723990142345428
---
linear:
  x: 0.4322277903556824
  y: -0.0008027800358831882
  z: 0.0
angular:
  x: 0.0
  y: 0.0
  z: 0.23173290491104126
---
linear:
  x: 0.4327433109283447
  y: -0.0026123083662241697
  z: 0.0
angular:
  x: 0.0
  y: 0.0
  z: 0.23386961221694946
---
linear:
  x: 0.4318154752254486
  y: -0.0032813474535942078
  z: 0.0
angular:
  x: 0.0
  y: 0.0
  z: 0.24496003985404968
---
linear:
  x: 0.4324565827846527
  y: -0.004474072717130184
  z: 0.0
angular:
  x: 0.0
  y: 0.0
  z: 0.24914434552192688
---
linear:
  x: 0.43265047669410706
  y: -0.006710132118314505
  z: 0.0
angular:
  x: 0.0
  y: 0.0
  z: 0.25610560178756714
---
linear:
  x: 0.43339020013809204
  y: -0.00951881892979145
  z: 0.0
angular:
  x: 0.0
  y: 0.0
  z: 0.26186853647232056
---
linear:
  x: 0.43266957998275757
  y: -0.011467000469565392
  z: 0.0
angular:
  x: 0.0
  y: 0.0
  z: 0.27784693241119385
---
linear:
  x: 0.43253931403160095
  y: -0.014159615151584148
  z: 0.0
angular:
  x: 0.0
  y: 0.0
  z: 0.28780171275138855
---
linear:
  x: 0.43100714683532715
  y: -0.014574036933481693
  z: 0.0
angular:
  x: 0.0
  y: 0.0
  z: 0.3077428936958313
---
linear:
  x: 0.4308052957057953
  y: -0.015932349488139153
  z: 0.0
angular:
  x: 0.0
  y: 0.0
  z: 0.32018497586250305
---
linear:
  x: 0.4293794333934784
  y: -0.01535410713404417
  z: 0.0
angular:
  x: 0.0
  y: 0.0
  z: 0.3421117067337036
---
linear:
  x: 0.4285449981689453
  y: -0.014691289514303207
  z: 0.0
angular:
  x: 0.0
  y: 0.0
  z: 0.3583534359931946
---
linear:
  x: 0.42793038487434387
  y: -0.014540199190378189
  z: 0.0
angular:
  x: 0.0
  y: 0.0
  z: 0.3761174976825714
---
linear:
  x: 0.4280925691127777
  y: -0.014272702857851982
  z: 0.0
angular:
  x: 0.0
  y: 0.0
  z: 0.38736510276794434
---
linear:
  x: 0.4276275634765625
  y: -0.014240068383514881
  z: 0.0
angular:
  x: 0.0
  y: 0.0
  z: 0.40728500485420227
---
linear:
  x: 0.4281183183193207
  y: -0.014423790387809277
  z: 0.0
angular:
  x: 0.0
  y: 0.0
  z: 0.4223422408103943
---
linear:
  x: 0.4260249435901642
  y: -0.013506142422556877
  z: 0.0
angular:
  x: 0.0
  y: 0.0
  z: 0.45330941677093506
---
linear:
  x: 0.42486029863357544
  y: -0.012792927213013172
  z: 0.0
angular:
  x: 0.0
  y: 0.0
  z: 0.4724160134792328
---
linear:
  x: 0.4209253787994385
  y: -0.010061251930892467
  z: 0.0
angular:
  x: 0.0
  y: 0.0
  z: 0.5124987363815308
---
linear:
  x: 0.4174322783946991
  y: -0.007324300240725279
  z: 0.0
angular:
  x: 0.0
  y: 0.0
  z: 0.5383647680282593
---
linear:
  x: 0.41258150339126587
  y: -0.005043276585638523
  z: 0.0
angular:
  x: 0.0
  y: 0.0
  z: 0.5771687626838684
---
linear:
  x: 0.40931737422943115
  y: -0.003364051692187786
  z: 0.0
angular:
  x: 0.0
  y: 0.0
  z: 0.5985873341560364
---
linear:
  x: 0.4022231101989746
  y: -8.67906492203474e-05
  z: 0.0
angular:
  x: 0.0
  y: 0.0
  z: 0.6420877575874329
---
linear:
  x: 0.39809712767601013
  y: 0.003381576854735613
  z: 0.0
angular:
  x: 0.0
  y: 0.0
  z: 0.6620765924453735
---
linear:
  x: 0.38773050904273987
  y: 0.009222051128745079
  z: 0.0
angular:
  x: 0.0
  y: 0.0
  z: 0.7083134651184082
---
linear:
  x: 0.3826197385787964
  y: 0.012973231263458729
  z: 0.0
angular:
  x: 0.0
  y: 0.0
  z: 0.7298961877822876
---
linear:
  x: 0.36593225598335266
  y: 0.021367965266108513
  z: 0.0
angular:
  x: 0.0
  y: 0.0
  z: 0.7885564565658569
---
linear:
  x: 0.3609531819820404
  y: 0.026714695617556572
  z: 0.0
angular:
  x: 0.0
  y: 0.0
  z: 0.8056482076644897
---
linear:
  x: 0.3491540849208832
  y: 0.034236252307891846
  z: 0.0
angular:
  x: 0.0
  y: 0.0
  z: 0.8498453497886658
---
linear:
  x: 0.3392024040222168
  y: 0.041679635643959045
  z: 0.0
angular:
  x: 0.0
  y: 0.0
  z: 0.8611169457435608
---
linear:
  x: 0.3332282304763794
  y: 0.04781268164515495
  z: 0.0
angular:
  x: 0.0
  y: 0.0
  z: 0.8937116861343384
---
linear:
  x: 0.32637688517570496
  y: 0.054216835647821426
  z: 0.0
angular:
  x: 0.0
  y: 0.0
  z: 0.8997871279716492
---
linear:
  x: 0.31634521484375
  y: 0.06149711087346077
  z: 0.0
angular:
  x: 0.0
  y: 0.0
  z: 0.9279703497886658
---
linear:
  x: 0.3160642087459564
  y: 0.06582807004451752
  z: 0.0
angular:
  x: 0.0
  y: 0.0
  z: 0.9258472919464111
---
linear:
  x: 0.30823564529418945
  y: 0.07184577733278275
  z: 0.0
angular:
  x: 0.0
  y: 0.0
  z: 0.9566946029663086
---
linear:
  x: 0.30098965764045715
  y: 0.07791628688573837
  z: 0.0
angular:
  x: 0.0
  y: 0.0
  z: 0.9582352638244629
---
linear:
  x: 0.2956685423851013
  y: 0.08349529653787613
  z: 0.0
angular:
  x: 0.0
  y: 0.0
  z: 0.9835538864135742
---
linear:
  x: 0.28851670026779175
  y: 0.088927261531353
  z: 0.0
angular:
  x: 0.0
  y: 0.0
  z: 0.9808292984962463
---
linear:
  x: 0.28214067220687866
  y: 0.09438979625701904
  z: 0.0
angular:
  x: 0.0
  y: 0.0
  z: 1.0039567947387695
---
linear:
  x: 0.2748807668685913
  y: 0.09955786168575287
  z: 0.0
angular:
  x: 0.0
  y: 0.0
  z: 0.9998306632041931
---
linear:
  x: 0.2704716622829437
  y: 0.104744553565979
  z: 0.0
angular:
  x: 0.0
  y: 0.0
  z: 1.022769808769226
---
linear:
  x: 0.26643094420433044
  y: 0.10882919281721115
  z: 0.0
angular:
  x: 0.0
  y: 0.0
  z: 1.0148584842681885
---
linear:
  x: 0.26479899883270264
  y: 0.11343763023614883
  z: 0.0
angular:
  x: 0.0
  y: 0.0
  z: 1.034700870513916
---
linear:
  x: 0.26383471488952637
  y: 0.11656781286001205
  z: 0.0
angular:
  x: 0.0
  y: 0.0
  z: 1.0221185684204102
---
linear:
  x: 0.2660425901412964
  y: 0.11989910155534744
  z: 0.0
angular:
  x: 0.0
  y: 0.0
  z: 1.036547064781189
---
linear:
  x: 0.2684720754623413
  y: 0.12177698314189911
  z: 0.0
angular:
  x: 0.0
  y: 0.0
  z: 1.01984441280365
---
linear:
  x: 0.2768343389034271
  y: 0.1223103329539299
  z: 0.0
angular:
  x: 0.0
  y: 0.0
  z: 1.0249322652816772
---
linear:
  x: 0.2787902057170868
  y: 0.12350218743085861
  z: 0.0
angular:
  x: 0.0
  y: 0.0
  z: 1.0067583322525024
---
linear:
  x: 0.2821161150932312
  y: 0.1254221349954605
  z: 0.0
angular:
  x: 0.0
  y: 0.0
  z: 1.0197551250457764
---
linear:
  x: 0.2890765368938446
  y: 0.12495604902505875
  z: 0.0
angular:
  x: 0.0
  y: 0.0
  z: 1.000458836555481
---
linear:
  x: 0.2957947552204132
  y: 0.12603817880153656
  z: 0.0
angular:
  x: 0.0
  y: 0.0
  z: 1.0025959014892578
---
linear:
  x: 0.30799147486686707
  y: 0.12433180958032608
  z: 0.0
angular:
  x: 0.0
  y: 0.0
  z: 0.9724389910697937
---
linear:
  x: 0.31440094113349915
  y: 0.12540780007839203
  z: 0.0
angular:
  x: 0.0
  y: 0.0
  z: 0.9811086058616638
---
linear:
  x: 0.319848895072937
  y: 0.12522295117378235
  z: 0.0
angular:
  x: 0.0
  y: 0.0
  z: 0.9616400003433228
---
linear:
  x: 0.3255719244480133
  y: 0.12632395327091217
  z: 0.0
angular:
  x: 0.0
  y: 0.0
  z: 0.974488377571106
---
linear:
  x: 0.32976317405700684
  y: 0.12633442878723145
  z: 0.0
angular:
  x: 0.0
  y: 0.0
  z: 0.9574442505836487
---
linear:
  x: 0.33620330691337585
  y: 0.1270936131477356
  z: 0.0
angular:
  x: 0.0
  y: 0.0
  z: 0.9689148664474487
---
linear:
  x: 0.34201711416244507
  y: 0.12627235054969788
  z: 0.0
angular:
  x: 0.0
  y: 0.0
  z: 0.9434914588928223
---
linear:
  x: 0.3473139703273773
  y: 0.1274067461490631
  z: 0.0
angular:
  x: 0.0
  y: 0.0
  z: 0.9506010413169861
---
linear:
  x: 0.35526779294013977
  y: 0.1259962022304535
  z: 0.0
angular:
  x: 0.0
  y: 0.0
  z: 0.9249950051307678
---
linear:
  x: 0.36064237356185913
  y: 0.12712721526622772
  z: 0.0
angular:
  x: 0.0
  y: 0.0
  z: 0.9358338117599487
---
linear:
  x: 0.36828485131263733
  y: 0.125247061252594
  z: 0.0
angular:
  x: 0.0
  y: 0.0
  z: 0.9101080894470215
---
linear:
  x: 0.37100180983543396
  y: 0.12685978412628174
  z: 0.0
angular:
  x: 0.0
  y: 0.0
  z: 0.9205857515335083
---
linear:
  x: 0.3743705749511719
  y: 0.1265205591917038
  z: 0.0
angular:
  x: 0.0
  y: 0.0
  z: 0.895266056060791
---
linear:
  x: 0.37842893600463867
  y: 0.12789613008499146
  z: 0.0
angular:
  x: 0.0
  y: 0.0
  z: 0.9068774580955505
---
linear:
  x: 0.38286489248275757
  y: 0.12722286581993103
  z: 0.0
angular:
  x: 0.0
  y: 0.0
  z: 0.8829049468040466
---
linear:
  x: 0.3986852169036865
  y: 0.121218740940094
  z: 0.0
angular:
  x: 0.0
  y: 0.0
  z: 0.8188000321388245
---
linear:
  x: 0.41567137837409973
  y: 0.11454303562641144
  z: 0.0
angular:
  x: 0.0
  y: 0.0
  z: 0.7536302208900452
---
linear:
  x: 0.429362416267395
  y: 0.1112334355711937
  z: 0.0
angular:
  x: 0.0
  y: 0.0
  z: 0.7310988903045654
---
linear:
  x: 0.44476795196533203
  y: 0.10394115000963211
  z: 0.0
angular:
  x: 0.0
  y: 0.0
  z: 0.6627705097198486
---
linear:
  x: 0.45611050724983215
  y: 0.10105103254318237
  z: 0.0
angular:
  x: 0.0
  y: 0.0
  z: 0.6526569128036499
---
linear:
  x: 0.46268051862716675
  y: 0.09708192944526672
  z: 0.0
angular:
  x: 0.0
  y: 0.0
  z: 0.6149755716323853
---
linear:
  x: 0.46709883213043213
  y: 0.09666793793439865
  z: 0.0
angular:
  x: 0.0
  y: 0.0
  z: 0.6196768283843994
---
linear:
  x: 0.466900110244751
  y: 0.09519048780202866
  z: 0.0
angular:
  x: 0.0
  y: 0.0
  z: 0.5981990694999695
---
linear:
  x: 0.46731114387512207
  y: 0.0965123176574707
  z: 0.0
angular:
  x: 0.0
  y: 0.0
  z: 0.614996612071991
---
linear:
  x: 0.46486616134643555
  y: 0.09608829766511917
  z: 0.0
angular:
  x: 0.0
  y: 0.0
  z: 0.6040167808532715
---
linear:
  x: 0.46474185585975647
  y: 0.09753802418708801
  z: 0.0
angular:
  x: 0.0
  y: 0.0
  z: 0.6193883419036865
---
linear:
  x: 0.4628725051879883
  y: 0.09724938869476318
  z: 0.0
angular:
  x: 0.0
  y: 0.0
  z: 0.6092174053192139
---
linear:
  x: 0.4656846523284912
  y: 0.09715083241462708
  z: 0.0
angular:
  x: 0.0
  y: 0.0
  z: 0.6181871294975281
---
linear:
  x: 0.4665123522281647
  y: 0.09541347622871399
  z: 0.0
angular:
  x: 0.0
  y: 0.0
  z: 0.6034919023513794
---
linear:
  x: 0.46917524933815
  y: 0.09531127661466599
  z: 0.0
angular:
  x: 0.0
  y: 0.0
  z: 0.6058248281478882
---
linear:
  x: 0.4701463580131531
  y: 0.09417103230953217
  z: 0.0
angular:
  x: 0.0
  y: 0.0
  z: 0.5883375406265259
---
linear:
  x: 0.4739617109298706
  y: 0.0949409231543541
  z: 0.0
angular:
  x: 0.0
  y: 0.0
  z: 0.5962109565734863
---
linear:
  x: 0.475166916847229
  y: 0.09437426924705505
  z: 0.0
angular:
  x: 0.0
  y: 0.0
  z: 0.5811182260513306
---
linear:
  x: 0.4790232479572296
  y: 0.09566618502140045
  z: 0.0
angular:
  x: 0.0
  y: 0.0
  z: 0.5908142328262329
---
linear:
  x: 0.4796767830848694
  y: 0.0954015776515007
  z: 0.0
angular:
  x: 0.0
  y: 0.0
  z: 0.5751141905784607
---
linear:
  x: 0.48338693380355835
  y: 0.09653301537036896
  z: 0.0
angular:
  x: 0.0
  y: 0.0
  z: 0.5819642543792725
---
linear:
  x: 0.4901410937309265
  y: 0.08712688088417053
  z: 0.0
angular:
  x: 0.0
  y: 0.0
  z: 0.4989989101886749
---
linear:
  x: 0.49435722827911377
  y: 0.08143166452646255
  z: 0.0
angular:
  x: 0.0
  y: 0.0
  z: 0.47055667638778687
---
linear:
  x: 0.49764642119407654
  y: 0.07366472482681274
  z: 0.0
angular:
  x: 0.0
  y: 0.0
  z: 0.41732335090637207
---
linear:
  x: 0.5
  y: 0.06942780315876007
  z: 0.0
angular:
  x: 0.0
  y: 0.0
  z: 0.4092417061328888
---
linear:
  x: 0.4991254508495331
  y: 0.06470458209514618
  z: 0.0
angular:
  x: 0.0
  y: 0.0
  z: 0.38310420513153076
---
linear:
  x: 0.49852555990219116
  y: 0.0631691962480545
  z: 0.0
angular:
  x: 0.0
  y: 0.0
  z: 0.39104920625686646
---
linear:
  x: 0.4947134852409363
  y: 0.061313748359680176
  z: 0.0
angular:
  x: 0.0
  y: 0.0
  z: 0.3785169720649719
---
linear:
  x: 0.4923507273197174
  y: 0.06208758056163788
  z: 0.0
angular:
  x: 0.0
  y: 0.0
  z: 0.3928934633731842
---
linear:
  x: 0.48808005452156067
  y: 0.06180664151906967
  z: 0.0
angular:
  x: 0.0
  y: 0.0
  z: 0.3841073513031006
---
linear:
  x: 0.4857465326786041
  y: 0.062434859573841095
  z: 0.0
angular:
  x: 0.0
  y: 0.0
  z: 0.39198774099349976
---
linear:
  x: 0.4829827845096588
  y: 0.06178441643714905
  z: 0.0
angular:
  x: 0.0
  y: 0.0
  z: 0.37915629148483276
---
linear:
  x: 0.48249202966690063
  y: 0.06245577707886696
  z: 0.0
angular:
  x: 0.0
  y: 0.0
  z: 0.3924618065357208
---
linear:
  x: 0.4810042381286621
  y: 0.06182721257209778
  z: 0.0
angular:
  x: 0.0
  y: 0.0
  z: 0.38183826208114624
---
linear:
  x: 0.48182180523872375
  y: 0.06283777207136154
  z: 0.0
angular:
  x: 0.0
  y: 0.0
  z: 0.3985966742038727
---
linear:
  x: 0.48130854964256287
  y: 0.06451834738254547
  z: 0.0
angular:
  x: 0.0
  y: 0.0
  z: 0.40869128704071045
---
linear:
  x: 0.48216521739959717
  y: 0.06717801839113235
  z: 0.0
angular:
  x: 0.0
  y: 0.0
  z: 0.43517056107521057
---
linear:
  x: 0.4795449376106262
  y: 0.06856986880302429
  z: 0.0
angular:
  x: 0.0
  y: 0.0
  z: 0.4320342540740967
---
linear:
  x: 0.48142579197883606
  y: 0.07112716138362885
  z: 0.0
angular:
  x: 0.0
  y: 0.0
  z: 0.45169973373413086
---
linear:
  x: 0.4803079664707184
  y: 0.07168828696012497
  z: 0.0
angular:
  x: 0.0
  y: 0.0
  z: 0.4448351562023163
---
linear:
  x: 0.48421409726142883
  y: 0.07442384958267212
  z: 0.0
angular:
  x: 0.0
  y: 0.0
  z: 0.46967458724975586
---
linear:
  x: 0.4887317419052124
  y: 0.07008813321590424
  z: 0.0
angular:
  x: 0.0
  y: 0.0
  z: 0.46415433287620544
---
linear:
  x: 0.4920812249183655
  y: 0.06710655242204666
  z: 0.0
angular:
  x: 0.0
  y: 0.0
  z: 0.4800184369087219
---
linear:
  x: 0.49027615785598755
  y: 0.06182314455509186
  z: 0.0
angular:
  x: 0.0
  y: 0.0
  z: 0.46235740184783936
---
linear:
  x: 0.48862218856811523
  y: 0.05972394719719887
  z: 0.0
angular:
  x: 0.0
  y: 0.0
  z: 0.473067045211792
---
linear:
  x: 0.4836587905883789
  y: 0.05686120316386223
  z: 0.0
angular:
  x: 0.0
  y: 0.0
  z: 0.46325182914733887
---
linear:
  x: 0.4802088737487793
  y: 0.05647573247551918
  z: 0.0
angular:
  x: 0.0
  y: 0.0
  z: 0.4754265546798706
---
linear:
  x: 0.4742856025695801
  y: 0.05513220652937889
  z: 0.0
angular:
  x: 0.0
  y: 0.0
  z: 0.46748894453048706
---
linear:
  x: 0.46959128975868225
  y: 0.05775909498333931
  z: 0.0
angular:
  x: 0.0
  y: 0.0
  z: 0.4928118884563446
---
linear:
  x: 0.46120020747184753
  y: 0.06046323850750923
  z: 0.0
angular:
  x: 0.0
  y: 0.0
  z: 0.4997885823249817
---
linear:
  x: 0.4557305872440338
  y: 0.06437716633081436
  z: 0.0
angular:
  x: 0.0
  y: 0.0
  z: 0.5202611088752747
---
linear:
  x: 0.4485185444355011
  y: 0.06732983887195587
  z: 0.0
angular:
  x: 0.0
  y: 0.0
  z: 0.5181701183319092
---
linear:
  x: 0.44350680708885193
  y: 0.07217657566070557
  z: 0.0
angular:
  x: 0.0
  y: 0.0
  z: 0.5387075543403625
---
linear:
  x: 0.43908199667930603
  y: 0.07473266124725342
  z: 0.0
angular:
  x: 0.0
  y: 0.0
  z: 0.5343564748764038
---
linear:
  x: 0.43649908900260925
  y: 0.07895757257938385
  z: 0.0
angular:
  x: 0.0
  y: 0.0
  z: 0.5492575764656067
---
linear:
  x: 0.4332805573940277
  y: 0.08185732364654541
  z: 0.0
angular:
  x: 0.0
  y: 0.0
  z: 0.5455397367477417
---
linear:
  x: 0.4329770505428314
  y: 0.08512535691261292
  z: 0.0
angular:
  x: 0.0
  y: 0.0
  z: 0.5554623603820801
---
linear:
  x: 0.432113379240036
  y: 0.08756338804960251
  z: 0.0
angular:
  x: 0.0
  y: 0.0
  z: 0.5493886470794678
---
linear:
  x: 0.433296799659729
  y: 0.09027713537216187
  z: 0.0
angular:
  x: 0.0
  y: 0.0
  z: 0.5538086891174316
---
linear:
  x: 0.4341488182544708
  y: 0.09188271313905716
  z: 0.0
angular:
  x: 0.0
  y: 0.0
  z: 0.5407660007476807
---
linear:
  x: 0.4368322789669037
  y: 0.09393657743930817
  z: 0.0
angular:
  x: 0.0
  y: 0.0
  z: 0.5429518818855286
---
linear:
  x: 0.4393381178379059
  y: 0.09508120268583298
  z: 0.0
angular:
  x: 0.0
  y: 0.0
  z: 0.5310624241828918
---
linear:
  x: 0.45185166597366333
  y: 0.08985605090856552
  z: 0.0
angular:
  x: 0.0
  y: 0.0
  z: 0.48657897114753723
---
linear:
  x: 0.46310552954673767
  y: 0.08432728797197342
  z: 0.0
angular:
  x: 0.0
  y: 0.0
  z: 0.44301316142082214
---
linear:
  x: 0.4743911027908325
  y: 0.07937850058078766
  z: 0.0
angular:
  x: 0.0
  y: 0.0
  z: 0.41404926776885986
---
linear:
  x: 0.4830998480319977
  y: 0.07441100478172302
  z: 0.0
angular:
  x: 0.0
  y: 0.0
  z: 0.38306504487991333
---
linear:
  x: 0.49098557233810425
  y: 0.07197614759206772
  z: 0.0
angular:
  x: 0.0
  y: 0.0
  z: 0.3793826699256897
---
linear:
  x: 0.49346745014190674
  y: 0.06911863386631012
  z: 0.0
angular:
  x: 0.0
  y: 0.0
  z: 0.3638400435447693
---
linear:
  x: 0.49603378772735596
  y: 0.06875644624233246
  z: 0.0
angular:
  x: 0.0
  y: 0.0
  z: 0.37081673741340637
---
linear:
  x: 0.4946998953819275
  y: 0.0678771510720253
  z: 0.0
angular:
  x: 0.0
  y: 0.0
  z: 0.3642798066139221
---
linear:
  x: 0.49230408668518066
  y: 0.0691983625292778
  z: 0.0
angular:
  x: 0.0
  y: 0.0
  z: 0.3722229599952698
---
linear:
  x: 0.4882465898990631
  y: 0.07003656029701233
  z: 0.0
angular:
  x: 0.0
  y: 0.0
  z: 0.36616551876068115
---
linear:
  x: 0.48579055070877075
  y: 0.07239536941051483
  z: 0.0
angular:
  x: 0.0
  y: 0.0
  z: 0.37730711698532104
---
linear:
  x: 0.48231208324432373
  y: 0.07351584732532501
  z: 0.0
angular:
  x: 0.0
  y: 0.0
  z: 0.36746737360954285
---
linear:
  x: 0.4808451533317566
  y: 0.07587457448244095
  z: 0.0
angular:
  x: 0.0
  y: 0.0
  z: 0.37550756335258484
---
linear:
  x: 0.4786015450954437
  y: 0.07730742543935776
  z: 0.0
angular:
  x: 0.0
  y: 0.0
  z: 0.3641520142555237
---
linear:
  x: 0.478307843208313
  y: 0.07954397052526474
  z: 0.0
angular:
  x: 0.0
  y: 0.0
  z: 0.3692421317100525
---
linear:
  x: 0.47653743624687195
  y: 0.08111368119716644
  z: 0.0
angular:
  x: 0.0
  y: 0.0
  z: 0.3586697280406952
---
linear:
  x: 0.4759324789047241
  y: 0.08393645286560059
  z: 0.0
angular:
  x: 0.0
  y: 0.0
  z: 0.36070454120635986
---
linear:
  x: 0.4752650260925293
  y: 0.0853322297334671
  z: 0.0
angular:
  x: 0.0
  y: 0.0
  z: 0.3487999141216278
---
linear:
  x: 0.4765724241733551
  y: 0.08740577101707458
  z: 0.0
angular:
  x: 0.0
  y: 0.0
  z: 0.35103318095207214
---
linear:
  x: 0.4765332341194153
  y: 0.08899173140525818
  z: 0.0
angular:
  x: 0.0
  y: 0.0
  z: 0.3395313620567322
---
linear:
  x: 0.4779403805732727
  y: 0.09129563719034195
  z: 0.0
angular:
  x: 0.0
  y: 0.0
  z: 0.34099969267845154
---
linear:
  x: 0.4838778078556061
  y: 0.08990732580423355
  z: 0.0
angular:
  x: 0.0
  y: 0.0
  z: 0.31951645016670227
---
linear:
  x: 0.4887428879737854
  y: 0.08956773579120636
  z: 0.0
angular:
  x: 0.0
  y: 0.0
  z: 0.3143478035926819
---
linear:
  x: 0.49187952280044556
  y: 0.08814781159162521
  z: 0.0
angular:
  x: 0.0
  y: 0.0
  z: 0.2941865026950836
---
linear:
  x: 0.4921809136867523
  y: 0.0901951938867569
  z: 0.0
angular:
  x: 0.0
  y: 0.0
  z: 0.3080240786075592
---
linear:
  x: 0.49073272943496704
  y: 0.09112519770860672
  z: 0.0
angular:
  x: 0.0
  y: 0.0
  z: 0.3009289801120758
---
linear:
  x: 0.48834601044654846
  y: 0.09386203438043594
  z: 0.0
angular:
  x: 0.0
  y: 0.0
  z: 0.3050166666507721
---
linear:
  x: 0.4848187267780304
  y: 0.09575946629047394
  z: 0.0
angular:
  x: 0.0
  y: 0.0
  z: 0.29104873538017273
---
linear:
  x: 0.4826916456222534
  y: 0.09824562817811966
  z: 0.0
angular:
  x: 0.0
  y: 0.0
  z: 0.28760066628456116
---
linear:
  x: 0.4799783229827881
  y: 0.1001724973320961
  z: 0.0
angular:
  x: 0.0
  y: 0.0
  z: 0.27273306250572205
---
linear:
  x: 0.47914016246795654
  y: 0.10245010256767273
  z: 0.0
angular:
  x: 0.0
  y: 0.0
  z: 0.26693853735923767
---
linear:
  x: 0.4780261516571045
  y: 0.10382561385631561
  z: 0.0
angular:
  x: 0.0
  y: 0.0
  z: 0.24870893359184265
---
linear:
  x: 0.4574652314186096
  y: 0.10807173699140549
  z: 0.0
angular:
  x: 0.0
  y: 0.0
  z: 0.28267529606819153
---
linear:
  x: 0.4378712475299835
  y: 0.11026105284690857
  z: 0.0
angular:
  x: 0.0
  y: 0.0
  z: 0.28818970918655396
---
linear:
  x: 0.41413915157318115
  y: 0.1133822351694107
  z: 0.0
angular:
  x: 0.0
  y: 0.0
  z: 0.3110969662666321
---
linear:
  x: 0.39250490069389343
  y: 0.11464428156614304
  z: 0.0
angular:
  x: 0.0
  y: 0.0
  z: 0.3124236762523651
---
linear:
  x: 0.3702036738395691
  y: 0.1167059987783432
  z: 0.0
angular:
  x: 0.0
  y: 0.0
  z: 0.32297056913375854
---
linear:
  x: 0.3492184281349182
  y: 0.1178722083568573
  z: 0.0
angular:
  x: 0.0
  y: 0.0
  z: 0.32548806071281433
---
linear:
  x: 0.3307223916053772
  y: 0.11862751096487045
  z: 0.0
angular:
  x: 0.0
  y: 0.0
  z: 0.32818663120269775
---
linear:
  x: 0.3139905631542206
  y: 0.11772835999727249
  z: 0.0
angular:
  x: 0.0
  y: 0.0
  z: 0.32248127460479736
---
linear:
  x: 0.3024326264858246
  y: 0.11532421410083771
  z: 0.0
angular:
  x: 0.0
  y: 0.0
  z: 0.3123268187046051
---
linear:
  x: 0.29259687662124634
  y: 0.11147890985012054
  z: 0.0
angular:
  x: 0.0
  y: 0.0
  z: 0.30157271027565
---
linear:
  x: 0.28453153371810913
  y: 0.10851345956325531
  z: 0.0
angular:
  x: 0.0
  y: 0.0
  z: 0.3027065694332123
---
linear:
  x: 0.2728290557861328
  y: 0.10480161011219025
  z: 0.0
angular:
  x: 0.0
  y: 0.0
  z: 0.29625600576400757
---
linear:
  x: 0.25927796959877014
  y: 0.10222087800502777
  z: 0.0
angular:
  x: 0.0
  y: 0.0
  z: 0.2991516590118408
---
linear:
  x: 0.2501819133758545
  y: 0.09663283079862595
  z: 0.0
angular:
  x: 0.0
  y: 0.0
  z: 0.2846471667289734
---
linear:
  x: 0.23790644109249115
  y: 0.09392236918210983
  z: 0.0
angular:
  x: 0.0
  y: 0.0
  z: 0.2784291207790375
---
linear:
  x: 0.22468483448028564
  y: 0.0904054120182991
  z: 0.0
angular:
  x: 0.0
  y: 0.0
  z: 0.261992871761322
---
linear:
  x: 0.21066556870937347
  y: 0.08928138017654419
  z: 0.0
angular:
  x: 0.0
  y: 0.0
  z: 0.2571887969970703
---
linear:
  x: 0.20241288840770721
  y: 0.08463083952665329
  z: 0.0
angular:
  x: 0.0
  y: 0.0
  z: 0.2353568971157074
---
linear:
  x: 0.1971077173948288
  y: 0.08261337131261826
  z: 0.0
angular:
  x: 0.0
  y: 0.0
  z: 0.23452040553092957
---
linear:
  x: 0.19162659347057343
  y: 0.07913897186517715
  z: 0.0
angular:
  x: 0.0
  y: 0.0
  z: 0.2299436777830124
---
linear:
  x: 0.18690188229084015
  y: 0.07830403745174408
  z: 0.0
angular:
  x: 0.0
  y: 0.0
  z: 0.22868703305721283
---
linear:
  x: 0.17915597558021545
  y: 0.07622417062520981
  z: 0.0
angular:
  x: 0.0
  y: 0.0
  z: 0.22228994965553284
---
linear:
  x: 0.1723605841398239
  y: 0.07549998909235
  z: 0.0
angular:
  x: 0.0
  y: 0.0
  z: 0.2220992147922516
---
linear:
  x: 0.16292020678520203
  y: 0.07381615787744522
  z: 0.0
angular:
  x: 0.0
  y: 0.0
  z: 0.2157983034849167
---
linear:
  x: 0.15418343245983124
  y: 0.07398857921361923
  z: 0.0
angular:
  x: 0.0
  y: 0.0
  z: 0.2170451432466507
---
linear:
  x: 0.1531088799238205
  y: 0.07111023366451263
  z: 0.0
angular:
  x: 0.0
  y: 0.0
  z: 0.20630358159542084
---
linear:
  x: 0.15308138728141785
  y: 0.0701856017112732
  z: 0.0
angular:
  x: 0.0
  y: 0.0
  z: 0.20480100810527802
---
linear:
  x: 0.15427829325199127
  y: 0.06842304766178131
  z: 0.0
angular:
  x: 0.0
  y: 0.0
  z: 0.1989307403564453
---
linear:
  x: 0.15061123669147491
  y: 0.06951895356178284
  z: 0.0
angular:
  x: 0.0
  y: 0.0
  z: 0.19965846836566925
---
linear:
  x: 0.14642661809921265
  y: 0.07017824053764343
  z: 0.0
angular:
  x: 0.0
  y: 0.0
  z: 0.1930987536907196
---
linear:
  x: 0.15388989448547363
  y: 0.06088966876268387
  z: 0.0
angular:
  x: 0.0
  y: 0.0
  z: 0.14922285079956055
---
linear:
  x: 0.1604195535182953
  y: 0.052831731736660004
  z: 0.0
angular:
  x: 0.0
  y: 0.0
  z: 0.11203792691230774
---
linear:
  x: 0.16655288636684418
  y: 0.0471218079328537
  z: 0.0
angular:
  x: 0.0
  y: 0.0
  z: 0.09147106111049652
---
linear:
  x: 0.16913984715938568
  y: 0.04217261075973511
  z: 0.0
angular:
  x: 0.0
  y: 0.0
  z: 0.07777369022369385
---
linear:
  x: 0.17020824551582336
  y: 0.04056122899055481
  z: 0.0
angular:
  x: 0.0
  y: 0.0
  z: 0.07326971739530563
---
linear:
  x: 0.16808541119098663
  y: 0.03948428854346275
  z: 0.0
angular:
  x: 0.0
  y: 0.0
  z: 0.06997174769639969
---
linear:
  x: 0.16438762843608856
  y: 0.04015284776687622
  z: 0.0
angular:
  x: 0.0
  y: 0.0
  z: 0.07572125643491745
---
linear:
  x: 0.16447553038597107
  y: 0.03858140856027603
  z: 0.0
angular:
  x: 0.0
  y: 0.0
  z: 0.07449217885732651
---
linear:
  x: 0.16511258482933044
  y: 0.038500700145959854
  z: 0.0
angular:
  x: 0.0
  y: 0.0
  z: 0.07248172909021378
---
linear:
  x: 0.16517607867717743
  y: 0.03784734010696411
  z: 0.0
angular:
  x: 0.0
  y: 0.0
  z: 0.06413333863019943
---
linear:
  x: 0.1645398885011673
  y: 0.03857814893126488
  z: 0.0
angular:
  x: 0.0
  y: 0.0
  z: 0.05870586633682251
---
linear:
  x: 0.1623101383447647
  y: 0.03860597684979439
  z: 0.0
angular:
  x: 0.0
  y: 0.0
  z: 0.05214133858680725
---
linear:
  x: 0.15865471959114075
  y: 0.039536215364933014
  z: 0.0
angular:
  x: 0.0
  y: 0.0
  z: 0.05096983164548874
---
linear:
  x: 0.15371929109096527
  y: 0.04014655202627182
  z: 0.0
angular:
  x: 0.0
  y: 0.0
  z: 0.050099026411771774
---
linear:
  x: 0.1543663740158081
  y: 0.03901753947138786
  z: 0.0
angular:
  x: 0.0
  y: 0.0
  z: 0.04821276664733887
---
linear:
  x: 0.15567052364349365
  y: 0.03689517825841904
  z: 0.0
angular:
  x: 0.0
  y: 0.0
  z: 0.041644349694252014
---
linear:
  x: 0.15744662284851074
  y: 0.035690903663635254
  z: 0.0
angular:
  x: 0.0
  y: 0.0
  z: 0.039774101227521896
---
linear:
  x: 0.15698443353176117
  y: 0.03489683195948601
  z: 0.0
angular:
  x: 0.0
  y: 0.0
  z: 0.036647941917181015
---
linear:
  x: 0.1543949395418167
  y: 0.035780929028987885
  z: 0.0
angular:
  x: 0.0
  y: 0.0
  z: 0.03584621101617813
---
linear:
  x: 0.1577765941619873
  y: 0.036958131939172745
  z: 0.0
angular:
  x: 0.0
  y: 0.0
  z: 0.03782239928841591
---
linear:
  x: 0.16058330237865448
  y: 0.03752576559782028
  z: 0.0
angular:
  x: 0.0
  y: 0.0
  z: 0.03208795562386513
---
linear:
  x: 0.1617264598608017
  y: 0.03660134598612785
  z: 0.0
angular:
  x: 0.0
  y: 0.0
  z: 0.01879560947418213
---
linear:
  x: 0.16065701842308044
  y: 0.03600674495100975
  z: 0.0
angular:
  x: 0.0
  y: 0.0
  z: 0.006241436116397381
---
linear:
  x: 0.1575845330953598
  y: 0.03601526468992233
  z: 0.0
angular:
  x: 0.0
  y: 0.0
  z: 0.0005684611387550831
---
linear:
  x: 0.1524457484483719
  y: 0.037244491279125214
  z: 0.0
angular:
  x: 0.0
  y: 0.0
  z: -0.006253825966268778
---
linear:
  x: 0.15651707351207733
  y: 0.033653177320957184
  z: 0.0
angular:
  x: 0.0
  y: 0.0
  z: -0.017363259568810463
---
linear:
  x: 0.16180646419525146
  y: 0.030644407495856285
  z: 0.0
angular:
  x: 0.0
  y: 0.0
  z: -0.023618405684828758
---
linear:
  x: 0.17280982434749603
  y: 0.030114388093352318
  z: 0.0
angular:
  x: 0.0
  y: 0.0
  z: -0.019444666802883148
---
linear:
  x: 0.1793445199728012
  y: 0.03117166832089424
  z: 0.0
angular:
  x: 0.0
  y: 0.0
  z: -0.02524600923061371
---
linear:
  x: 0.17874711751937866
  y: 0.03056376799941063
  z: 0.0
angular:
  x: 0.0
  y: 0.0
  z: -0.03609614074230194
---
linear:
  x: 0.17813754081726074
  y: 0.030301161110401154
  z: 0.0
angular:
  x: 0.0
  y: 0.0
  z: -0.044442158192396164
---
linear:
  x: 0.1817941814661026
  y: 0.027949627488851547
  z: 0.0
angular:
  x: 0.0
  y: 0.0
  z: -0.052531562745571136
---
linear:
  x: 0.18378117680549622
  y: 0.02615356259047985
  z: 0.0
angular:
  x: 0.0
  y: 0.0
  z: -0.05888062343001366
---
linear:
  x: 0.18382017314434052
  y: 0.024832071736454964
  z: 0.0
angular:
  x: 0.0
  y: 0.0
  z: -0.06332217156887054
---
linear:
  x: 0.1800806075334549
  y: 0.02482086420059204
  z: 0.0
angular:
  x: 0.0
  y: 0.0
  z: -0.06780469417572021
---
linear:
  x: 0.1808418184518814
  y: 0.023010730743408203
  z: 0.0
angular:
  x: 0.0
  y: 0.0
  z: -0.0731009915471077
---
linear:
  x: 0.18075713515281677
  y: 0.022362247109413147
  z: 0.0
angular:
  x: 0.0
  y: 0.0
  z: -0.07878917455673218
---
linear:
  x: 0.18051974475383759
  y: 0.02138291671872139
  z: 0.0
angular:
  x: 0.0
  y: 0.0
  z: -0.08255048841238022
---
linear:
  x: 0.17922049760818481
  y: 0.02140810526907444
  z: 0.0
angular:
  x: 0.0
  y: 0.0
  z: -0.08797009289264679
---
linear:
  x: 0.17966383695602417
  y: 0.019429121166467667
  z: 0.0
angular:
  x: 0.0
  y: 0.0
  z: -0.09644815325737
---
linear:
  x: 0.18067878484725952
  y: 0.019433967769145966
  z: 0.0
angular:
  x: 0.0
  y: 0.0
  z: -0.09403995424509048
---
linear:
  x: 0.18436501920223236
  y: 0.015589564107358456
  z: 0.0
angular:
  x: 0.0
  y: 0.0
  z: -0.09714872390031815
---
linear:
  x: 0.19604331254959106
  y: 0.005579428281635046
  z: 0.0
angular:
  x: 0.0
  y: 0.0
  z: -0.12776978313922882
---
linear:
  x: 0.20870018005371094
  y: -0.004041524138301611
  z: 0.0
angular:
  x: 0.0
  y: 0.0
  z: -0.15728352963924408
---
linear:
  x: 0.22153007984161377
  y: -0.01199130155146122
  z: 0.0
angular:
  x: 0.0
  y: 0.0
  z: -0.18656696379184723
---
linear:
  x: 0.23055626451969147
  y: -0.018653886392712593
  z: 0.0
angular:
  x: 0.0
  y: 0.0
  z: -0.21041467785835266
---
linear:
  x: 0.2389383316040039
  y: -0.023853665217757225
  z: 0.0
angular:
  x: 0.0
  y: 0.0
  z: -0.22771704196929932
---
linear:
  x: 0.24756306409835815
  y: -0.03051225282251835
  z: 0.0
angular:
  x: 0.0
  y: 0.0
  z: -0.24904656410217285
---
linear:
  x: 0.25433650612831116
  y: -0.035552412271499634
  z: 0.0
angular:
  x: 0.0
  y: 0.0
  z: -0.26607728004455566
---
linear:
  x: 0.2599690854549408
  y: -0.03869175165891647
  z: 0.0
angular:
  x: 0.0
  y: 0.0
  z: -0.2865672707557678
---
linear:
  x: 0.26725494861602783
  y: -0.04110095649957657
  z: 0.0
angular:
  x: 0.0
  y: 0.0
  z: -0.2970791459083557
---
linear:
  x: 0.27064478397369385
  y: -0.0442030169069767
  z: 0.0
angular:
  x: 0.0
  y: 0.0
  z: -0.3193161189556122
---
linear:
  x: 0.27452191710472107
  y: -0.04570290818810463
  z: 0.0
angular:
  x: 0.0
  y: 0.0
  z: -0.33174723386764526
---
linear:
  x: 0.2755172550678253
  y: -0.0483841709792614
  z: 0.0
angular:
  x: 0.0
  y: 0.0
  z: -0.350859671831131
---
linear:
  x: 0.27704545855522156
  y: -0.05135442316532135
  z: 0.0
angular:
  x: 0.0
  y: 0.0
  z: -0.36403876543045044
---
linear:
  x: 0.2770231366157532
  y: -0.05463382229208946
  z: 0.0
angular:
  x: 0.0
  y: 0.0
  z: -0.3825049102306366
---
linear:
  x: 0.27809852361679077
  y: -0.058722250163555145
  z: 0.0
angular:
  x: 0.0
  y: 0.0
  z: -0.39364930987358093
---
linear:
  x: 0.27351248264312744
  y: -0.06321189552545547
  z: 0.0
angular:
  x: 0.0
  y: 0.0
  z: -0.41534721851348877
---
linear:
  x: 0.2737891674041748
  y: -0.06672408431768417
  z: 0.0
angular:
  x: 0.0
  y: 0.0
  z: -0.4287424087524414
---
linear:
  x: 0.27109628915786743
  y: -0.07166878879070282
  z: 0.0
angular:
  x: 0.0
  y: 0.0
  z: -0.44850513339042664
---
linear:
  x: 0.27226710319519043
  y: -0.07504883408546448
  z: 0.0
angular:
  x: 0.0
  y: 0.0
  z: -0.4588790237903595
---
linear:
  x: 0.2697579860687256
  y: -0.07952011376619339
  z: 0.0
angular:
  x: 0.0
  y: 0.0
  z: -0.4757430851459503
---
linear:
  x: 0.2823578715324402
  y: -0.0747610330581665
  z: 0.0
angular:
  x: 0.0
  y: 0.0
  z: -0.44422370195388794
---
linear:
  x: 0.2868094742298126
  y: -0.07377617061138153
  z: 0.0
angular:
  x: 0.0
  y: 0.0
  z: -0.44378769397735596
---
linear:
  x: 0.2926655411720276
  y: -0.0702819675207138
  z: 0.0
angular:
  x: 0.0
  y: 0.0
  z: -0.437420129776001
---
linear:
  x: 0.2933230400085449
  y: -0.06872006505727768
  z: 0.0
angular:
  x: 0.0
  y: 0.0
  z: -0.4462721645832062
---
linear:
  x: 0.2897159457206726
  y: -0.06799425929784775
  z: 0.0
angular:
  x: 0.0
  y: 0.0
  z: -0.4484403133392334
---
linear:
  x: 0.284684419631958
  y: -0.06856593489646912
  z: 0.0
angular:
  x: 0.0
  y: 0.0
  z: -0.46333232522010803
---
linear:
  x: 0.2791341245174408
  y: -0.06875601410865784
  z: 0.0
angular:
  x: 0.0
  y: 0.0
  z: -0.4746859669685364
---
linear:
  x: 0.27116072177886963
  y: -0.07054401934146881
  z: 0.0
angular:
  x: 0.0
  y: 0.0
  z: -0.49171194434165955
---
linear:
  x: 0.2701318562030792
  y: -0.07276994735002518
  z: 0.0
angular:
  x: 0.0
  y: 0.0
  z: -0.4960862696170807
---
linear:
  x: 0.2639510929584503
  y: -0.07537586241960526
  z: 0.0
angular:
  x: 0.0
  y: 0.0
  z: -0.5061094164848328
---
linear:
  x: 0.2591348886489868
  y: -0.07585667818784714
  z: 0.0
angular:
  x: 0.0
  y: 0.0
  z: -0.5036393404006958
---
linear:
  x: 0.2540169954299927
  y: -0.07744570821523666
  z: 0.0
angular:
  x: 0.0
  y: 0.0
  z: -0.5093085169792175
---
linear:
  x: 0.24897092580795288
  y: -0.07903967052698135
  z: 0.0
angular:
  x: 0.0
  y: 0.0
  z: -0.5017969012260437
---
linear:
  x: 0.24146437644958496
  y: -0.08133433014154434
  z: 0.0
angular:
  x: 0.0
  y: 0.0
  z: -0.5080270171165466
---
linear:
  x: 0.23542822897434235
  y: -0.08274760842323303
  z: 0.0
angular:
  x: 0.0
  y: 0.0
  z: -0.4982471466064453
---
linear:
  x: 0.22698131203651428
  y: -0.08485683798789978
  z: 0.0
angular:
  x: 0.0
  y: 0.0
  z: -0.5057913064956665
---
linear:
  x: 0.22291578352451324
  y: -0.08613286167383194
  z: 0.0
angular:
  x: 0.0
  y: 0.0
  z: -0.5026208162307739
---
linear:
  x: 0.21648813784122467
  y: -0.08755379915237427
  z: 0.0
angular:
  x: 0.0
  y: 0.0
  z: -0.5040191411972046
---
linear:
  x: 0.21255016326904297
  y: -0.0893496572971344
  z: 0.0
angular:
  x: 0.0
  y: 0.0
  z: -0.4996955394744873
---
linear:
  x: 0.207992285490036
  y: -0.09184232354164124
  z: 0.0
angular:
  x: 0.0
  y: 0.0
  z: -0.5004391670227051
---
linear:
  x: 0.211119145154953
  y: -0.09219580888748169
  z: 0.0
angular:
  x: 0.0
  y: 0.0
  z: -0.5010182857513428
---
linear:
  x: 0.2103017419576645
  y: -0.09394778311252594
  z: 0.0
angular:
  x: 0.0
  y: 0.0
  z: -0.5121172070503235
---
linear:
  x: 0.21033188700675964
  y: -0.09482362866401672
  z: 0.0
angular:
  x: 0.0
  y: 0.0
  z: -0.5224897861480713
---
linear:
  x: 0.2068023979663849
  y: -0.09627214074134827
  z: 0.0
angular:
  x: 0.0
  y: 0.0
  z: -0.5360769033432007
---
linear:
  x: 0.2050621062517166
  y: -0.09678249061107635
  z: 0.0
angular:
  x: 0.0
  y: 0.0
  z: -0.5414440035820007
---
linear:
  x: 0.1962624043226242
  y: -0.09717950224876404
  z: 0.0
angular:
  x: 0.0
  y: 0.0
  z: -0.5416088700294495
---
linear:
  x: 0.192495197057724
  y: -0.09668047726154327
  z: 0.0
angular:
  x: 0.0
  y: 0.0
  z: -0.5380028486251831
---
linear:
  x: 0.18769501149654388
  y: -0.09686484932899475
  z: 0.0
angular:
  x: 0.0
  y: 0.0
  z: -0.5398602485656738
---
linear:
  x: 0.18586872518062592
  y: -0.09610424190759659
  z: 0.0
angular:
  x: 0.0
  y: 0.0
  z: -0.5375588536262512
---
linear:
  x: 0.176853209733963
  y: -0.0963684692978859
  z: 0.0
angular:
  x: 0.0
  y: 0.0
  z: -0.5366581678390503
---
linear:
  x: 0.16902019083499908
  y: -0.09839318692684174
  z: 0.0
angular:
  x: 0.0
  y: 0.0
  z: -0.5298925638198853
---
linear:
  x: 0.1599331796169281
  y: -0.10103517025709152
  z: 0.0
angular:
  x: 0.0
  y: 0.0
  z: -0.5286083221435547
---
linear:
  x: 0.15792545676231384
  y: -0.10130523145198822
  z: 0.0
angular:
  x: 0.0
  y: 0.0
  z: -0.5221881866455078
---
linear:
  x: 0.15627402067184448
  y: -0.10260940343141556
  z: 0.0
angular:
  x: 0.0
  y: 0.0
  z: -0.5211081504821777
---
linear:
  x: 0.15233196318149567
  y: -0.10398296266794205
  z: 0.0
angular:
  x: 0.0
  y: 0.0
  z: -0.5154072046279907
---
linear:
  x: 0.14862847328186035
  y: -0.10553082078695297
  z: 0.0
angular:
  x: 0.0
  y: 0.0
  z: -0.5135678052902222
---
linear:
  x: 0.15107044577598572
  y: -0.10525529831647873
  z: 0.0
angular:
  x: 0.0
  y: 0.0
  z: -0.5044878125190735
---
linear:
  x: 0.15048055350780487
  y: -0.10479684174060822
  z: 0.0
angular:
  x: 0.0
  y: 0.0
  z: -0.4992711544036865
---
linear:
  x: 0.15058265626430511
  y: -0.10469767451286316
  z: 0.0
angular:
  x: 0.0
  y: 0.0
  z: -0.49719932675361633
---
linear:
  x: 0.14825870096683502
  y: -0.10578344762325287
  z: 0.0
angular:
  x: 0.0
  y: 0.0
  z: -0.49732348322868347
---
linear:
  x: 0.1447707861661911
  y: -0.1069779247045517
  z: 0.0
angular:
  x: 0.0
  y: 0.0
  z: -0.501649022102356
---
linear:
  x: 0.15956293046474457
  y: -0.10078047215938568
  z: 0.0
angular:
  x: 0.0
  y: 0.0
  z: -0.4851863384246826
---
linear:
  x: 0.17333592474460602
  y: -0.09427902847528458
  z: 0.0
angular:
  x: 0.0
  y: 0.0
  z: -0.4657932221889496
---
linear:
  x: 0.18129536509513855
  y: -0.08792214840650558
  z: 0.0
angular:
  x: 0.0
  y: 0.0
  z: -0.45748665928840637
---
linear:
  x: 0.18423958122730255
  y: -0.08366019278764725
  z: 0.0
angular:
  x: 0.0
  y: 0.0
  z: -0.45111486315727234
---
linear:
  x: 0.18066976964473724
  y: -0.08019405603408813
  z: 0.0
angular:
  x: 0.0
  y: 0.0
  z: -0.44746819138526917
---
linear:
  x: 0.19036252796649933
  y: -0.07650843262672424
  z: 0.0
angular:
  x: 0.0
  y: 0.0
  z: -0.42081618309020996
---
linear:
  x: 0.19765596091747284
  y: -0.07383435219526291
  z: 0.0
angular:
  x: 0.0
  y: 0.0
  z: -0.3946863114833832
---
linear:
  x: 0.20530882477760315
  y: -0.07178749889135361
  z: 0.0
angular:
  x: 0.0
  y: 0.0
  z: -0.3697214126586914
---
linear:
  x: 0.2111293226480484
  y: -0.07038389146327972
  z: 0.0
angular:
  x: 0.0
  y: 0.0
  z: -0.3492022156715393
---
linear:
  x: 0.21626602113246918
  y: -0.06941245496273041
  z: 0.0
angular:
  x: 0.0
  y: 0.0
  z: -0.3312682807445526
---
linear:
  x: 0.21963457763195038
  y: -0.06875324249267578
  z: 0.0
angular:
  x: 0.0
  y: 0.0
  z: -0.3168953061103821
---
linear:
  x: 0.22221817076206207
  y: -0.06819482147693634
  z: 0.0
angular:
  x: 0.0
  y: 0.0
  z: -0.30457407236099243
---
linear:
  x: 0.22153469920158386
  y: -0.06742537021636963
  z: 0.0
angular:
  x: 0.0
  y: 0.0
  z: -0.29390034079551697
---
linear:
  x: 0.2208676040172577
  y: -0.0666951984167099
  z: 0.0
angular:
  x: 0.0
  y: 0.0
  z: -0.2843877673149109
---
linear:
  x: 0.21935752034187317
  y: -0.06580278277397156
  z: 0.0
angular:
  x: 0.0
  y: 0.0
  z: -0.27585387229919434
---
linear:
  x: 0.21811886131763458
  y: -0.06481088697910309
  z: 0.0
angular:
  x: 0.0
  y: 0.0
  z: -0.268024742603302
---
linear:
  x: 0.21648713946342468
  y: -0.06376345455646515
  z: 0.0
angular:
  x: 0.0
  y: 0.0
  z: -0.26135310530662537
---
linear:
  x: 0.21510884165763855
  y: -0.06270072609186172
  z: 0.0
angular:
  x: 0.0
  y: 0.0
  z: -0.255143404006958
---
linear:
  x: 0.21324974298477173
  y: -0.06167297437787056
  z: 0.0
angular:
  x: 0.0
  y: 0.0
  z: -0.24958060681819916
---
linear:
  x: 0.21147796511650085
  y: -0.060734011232852936
  z: 0.0
angular:
  x: 0.0
  y: 0.0
  z: -0.24388021230697632
---
linear:
  x: 0.20914852619171143
  y: -0.05993392691016197
  z: 0.0
angular:
  x: 0.0
  y: 0.0
  z: -0.238250270485878
---
linear:
  x: 0.20688572525978088
  y: -0.059307973831892014
  z: 0.0
angular:
  x: 0.0
  y: 0.0
  z: -0.23216243088245392
---
linear:
  x: 0.2040865421295166
  y: -0.05887053161859512
  z: 0.0
angular:
  x: 0.0
  y: 0.0
  z: -0.22603018581867218
---
linear:
  x: 0.20138192176818848
  y: -0.05861927196383476
  z: 0.0
angular:
  x: 0.0
  y: 0.0
  z: -0.21957291662693024
---
linear:
  x: 0.19818198680877686
  y: -0.05852833017706871
  z: 0.0
angular:
  x: 0.0
  y: 0.0
  z: -0.21327728033065796
---
linear:
  x: 0.1951018124818802
  y: -0.058570798486471176
  z: 0.0
angular:
  x: 0.0
  y: 0.0
  z: -0.20693771541118622
---
linear:
  x: 0.1935456097126007
