linear:
  x: 0.14777572453022003
  y: -0.12287309765815735
  z: 0.0
angular:
  x: 0.0
  y: 0.0
  z: -0.936549961566925
---
linear:
  x: 0.17130567133426666
  y: -0.12209281325340271
  z: 0.0
angular:
  x: 0.0
  y: 0.0
  z: -0.9142149686813354
---
linear:
  x: 0.19409294426441193
  y: -0.12346206605434418
  z: 0.0
angular:
  x: 0.0
  y: 0.0
  z: -0.9300655126571655
---
linear:
  x: 0.21791499853134155
  y: -0.1234438568353653
  z: 0.0
angular:
  x: 0.0
  y: 0.0
  z: -0.9236618280410767
---
linear:
  x: 0.24273115396499634
  y: -0.12358799576759338
  z: 0.0
angular:
  x: 0.0
  y: 0.0
  z: -0.9293549060821533
---
linear:
  x: 0.2702450752258301
  y: -0.122077576816082
  z: 0.0
angular:
  x: 0.0
  y: 0.0
  z: -0.9101430177688599
---
linear:
  x: 0.296548455953598
  y: -0.12104792892932892
  z: 0.0
angular:
  x: 0.0
  y: 0.0
  z: -0.904892086982727
---
linear:
  x: 0.32344403862953186
  y: -0.11890719830989838
  z: 0.0
angular:
  x: 0.0
  y: 0.0
  z: -0.8744236826896667
---
linear:
  x: 0.3472880721092224
  y: -0.11751900613307953
  z: 0.0
angular:
  x: 0.0
  y: 0.0
  z: -0.8632173538208008
---
linear:
  x: 0.37024983763694763
  y: -0.1146169975399971
  z: 0.0
angular:
  x: 0.0
  y: 0.0
  z: -0.8305327892303467
---
linear:
  x: 0.39008018374443054
  y: -0.11322500556707382
  z: 0.0
angular:
  x: 0.0
  y: 0.0
  z: -0.818956732749939
---
linear:
  x: 0.4103466272354126
  y: -0.10890795290470123
  z: 0.0
angular:
  x: 0.0
  y: 0.0
  z: -0.7636752724647522
---
linear:
  x: 0.4258117377758026
  y: -0.10633969306945801
  z: 0.0
angular:
  x: 0.0
  y: 0.0
  z: -0.7399598360061646
---
linear:
  x: 0.439137727022171
  y: -0.10318250209093094
  z: 0.0
angular:
  x: 0.0
  y: 0.0
  z: -0.7003574967384338
---
linear:
  x: 0.4483484923839569
  y: -0.10198459774255753
  z: 0.0
angular:
  x: 0.0
  y: 0.0
  z: -0.6868790984153748
---
linear:
  x: 0.45754826068878174
  y: -0.09915412962436676
  z: 0.0
angular:
  x: 0.0
  y: 0.0
  z: -0.6516082286834717
---
linear:
  x: 0.4641594886779785
  y: -0.09846793860197067
  z: 0.0
angular:
  x: 0.0
  y: 0.0
  z: -0.6443171501159668
---
linear:
  x: 0.47107288241386414
  y: -0.09651945531368256
  z: 0.0
angular:
  x: 0.0
  y: 0.0
  z: -0.6169142127037048
---
linear:
  x: 0.4761667251586914
  y: -0.0955670177936554
  z: 0.0
angular:
  x: 0.0
  y: 0.0
  z: -0.6063623428344727
---
linear:
  x: 0.48036885261535645
  y: -0.0941673219203949
  z: 0.0
angular:
  x: 0.0
  y: 0.0
  z: -0.5811593532562256
---
linear:
  x: 0.48309144377708435
  y: -0.09480207413434982
  z: 0.0
angular:
  x: 0.0
  y: 0.0
  z: -0.5852383971214294
---
linear:
  x: 0.48536282777786255
  y: -0.09412527084350586
  z: 0.0
angular:
  x: 0.0
  y: 0.0
  z: -0.5653340816497803
---
linear:
  x: 0.4876829981803894
  y: -0.0940902978181839
  z: 0.0
angular:
  x: 0.0
  y: 0.0
  z: -0.5600407123565674
---
linear:
  x: 0.49031513929367065
  y: -0.09296631067991257
  z: 0.0
angular:
  x: 0.0
  y: 0.0
  z: -0.5351078510284424
---
linear:
  x: 0.4925699830055237
  y: -0.09268013387918472
  z: 0.0
angular:
  x: 0.0
  y: 0.0
  z: -0.5308752655982971
---
linear:
  x: 0.4946277141571045
  y: -0.09126844257116318
  z: 0.0
angular:
  x: 0.0
  y: 0.0
  z: -0.5078620314598083
---
linear:
  x: 0.49655526876449585
  y: -0.0904633179306984
  z: 0.0
angular:
  x: 0.0
  y: 0.0
  z: -0.5003575086593628
---
linear:
  x: 0.4982506036758423
  y: -0.08871404826641083
  z: 0.0
angular:
  x: 0.0
  y: 0.0
  z: -0.4771636426448822
---
linear:
  x: 0.49958229064941406
  y: -0.08802750706672668
  z: 0.0
angular:
  x: 0.0
  y: 0.0
  z: -0.4767012596130371
---
linear:
  x: 0.5
  y: -0.08632911741733551
  z: 0.0
angular:
  x: 0.0
  y: 0.0
  z: -0.4576616585254669
---
linear:
  x: 0.5
  y: -0.08524242043495178
  z: 0.0
angular:
  x: 0.0
  y: 0.0
  z: -0.4525738060474396
---
linear:
  x: 0.5
  y: -0.07891018688678741
  z: 0.0
angular:
  x: 0.0
  y: 0.0
  z: -0.3811057209968567
---
linear:
  x: 0.49808019399642944
  y: -0.07575513422489166
  z: 0.0
angular:
  x: 0.0
  y: 0.0
  z: -0.35422295331954956
---
linear:
  x: 0.4976810812950134
  y: -0.07131506502628326
  z: 0.0
angular:
  x: 0.0
  y: 0.0
  z: -0.31650787591934204
---
linear:
  x: 0.4978753924369812
  y: -0.06884677708148956
  z: 0.0
angular:
  x: 0.0
  y: 0.0
  z: -0.3045688271522522
---
linear:
  x: 0.4978753924369812
  y: -0.06884677708148956
  z: 0.0
angular:
  x: 0.0
  y: 0.0
  z: -0.3045688271522522
---
linear:
  x: 0.49881625175476074
  y: -0.06567469239234924
  z: 0.0
angular:
  x: 0.0
  y: 0.0
  z: -0.28211894631385803
---
linear:
  x: 0.49999094009399414
  y: -0.06189001724123955
  z: 0.0
angular:
  x: 0.0
  y: 0.0
  z: -0.2604331374168396
---
linear:
  x: 0.5
  y: -0.059512119740247726
  z: 0.0
angular:
  x: 0.0
  y: 0.0
  z: -0.2403842955827713
---
linear:
  x: 0.5
  y: -0.056548573076725006
  z: 0.0
angular:
  x: 0.0
  y: 0.0
  z: -0.21072277426719666
---
linear:
  x: 0.5
  y: -0.054810646921396255
  z: 0.0
angular:
  x: 0.0
  y: 0.0
  z: -0.20276355743408203
---
linear:
  x: 0.5
  y: -0.05209371820092201
  z: 0.0
angular:
  x: 0.0
  y: 0.0
  z: -0.1832597255706787
---
linear:
  x: 0.49999791383743286
  y: -0.05053148418664932
  z: 0.0
angular:
  x: 0.0
  y: 0.0
  z: -0.18172860145568848
---
linear:
  x: 0.4999960660934448
  y: -0.04981163144111633
  z: 0.0
angular:
  x: 0.0
  y: 0.0
  z: -0.18908332288265228
---
linear:
  x: 0.49999743700027466
  y: -0.04953479394316673
  z: 0.0
angular:
  x: 0.0
  y: 0.0
  z: -0.19969426095485687
---
linear:
  x: 0.4999989867210388
  y: -0.04846866428852081
  z: 0.0
angular:
  x: 0.0
  y: 0.0
  z: -0.193980410695076
---
linear:
  x: 0.4999998211860657
  y: -0.04842148721218109
  z: 0.0
angular:
  x: 0.0
  y: 0.0
  z: -0.19855965673923492
---
linear:
  x: 0.5
  y: -0.04734203219413757
  z: 0.0
angular:
  x: 0.0
  y: 0.0
  z: -0.18686915934085846
---
linear:
  x: 0.5
  y: -0.046450503170490265
  z: 0.0
angular:
  x: 0.0
  y: 0.0
  z: -0.18033908307552338
---
linear:
  x: 0.5
  y: -0.044613149017095566
  z: 0.0
angular:
  x: 0.0
  y: 0.0
  z: -0.16189883649349213
---
linear:
  x: 0.5
  y: -0.04376094043254852
  z: 0.0
angular:
  x: 0.0
  y: 0.0
  z: -0.16043762862682343
---
linear:
  x: 0.4999999403953552
  y: -0.0418059416115284
  z: 0.0
angular:
  x: 0.0
  y: 0.0
  z: -0.144926056265831
---
linear:
  x: 0.4999200701713562
  y: -0.0390276275575161
  z: 0.0
angular:
  x: 0.0
  y: 0.0
  z: -0.13331542909145355
---
linear:
  x: 0.4999821186065674
  y: -0.03504142910242081
  z: 0.0
angular:
  x: 0.0
  y: 0.0
  z: -0.10693734884262085
---
linear:
  x: 0.49998801946640015
  y: -0.03242077678442001
  z: 0.0
angular:
  x: 0.0
  y: 0.0
  z: -0.10022745281457901
---
linear:
  x: 0.5
  y: -0.029126323759555817
  z: 0.0
angular:
  x: 0.0
  y: 0.0
  z: -0.08325433731079102
---
linear:
  x: 0.5
  y: -0.027082327753305435
  z: 0.0
angular:
  x: 0.0
  y: 0.0
  z: -0.08037982881069183
---
linear:
  x: 0.5
  y: -0.02402537129819393
  z: 0.0
angular:
  x: 0.0
  y: 0.0
  z: -0.061523471027612686
---
linear:
  x: 0.5
  y: -0.021989474073052406
  z: 0.0
angular:
  x: 0.0
  y: 0.0
  z: -0.054739173501729965
---
linear:
  x: 0.5
  y: -0.019612377509474754
  z: 0.0
angular:
  x: 0.0
  y: 0.0
  z: -0.04225712642073631
---
linear:
  x: 0.4999999403953552
  y: -0.018078235909342766
  z: 0.0
angular:
  x: 0.0
  y: 0.0
  z: -0.0392371267080307
---
linear:
  x: 0.49999988079071045
  y: -0.016252676025032997
  z: 0.0
angular:
  x: 0.0
  y: 0.0
  z: -0.030976759269833565
---
linear:
  x: 0.4999999403953552
  y: -0.01572490483522415
  z: 0.0
angular:
  x: 0.0
  y: 0.0
  z: -0.03529346361756325
---
linear:
  x: 0.4999999403953552
  y: -0.01482303161174059
  z: 0.0
angular:
  x: 0.0
  y: 0.0
  z: -0.032185740768909454
---
linear:
  x: 0.4999999403953552
  y: -0.014423090033233166
  z: 0.0
angular:
  x: 0.0
  y: 0.0
  z: -0.03325025737285614
---
linear:
  x: 0.4999999403953552
  y: -0.013740641996264458
  z: 0.0
angular:
  x: 0.0
  y: 0.0
  z: -0.029234683141112328
---
linear:
  x: 0.4999999403953552
  y: -0.013401461765170097
  z: 0.0
angular:
  x: 0.0
  y: 0.0
  z: -0.029030926525592804
---
linear:
  x: 0.4999999403953552
  y: -0.009349139407277107
  z: 0.0
angular:
  x: 0.0
  y: 0.0
  z: 0.007309700362384319
---
linear:
  x: 0.4999999403953552
  y: -0.006303595378994942
  z: 0.0
angular:
  x: 0.0
  y: 0.0
  z: 0.022658811882138252
---
linear:
  x: 0.4999999403953552
  y: -0.002634072210639715
  z: 0.0
angular:
  x: 0.0
  y: 0.0
  z: 0.03942982852458954
---
linear:
  x: 0.4999999403953552
  y: 0.0004280898720026016
  z: 0.0
angular:
  x: 0.0
  y: 0.0
  z: 0.04930543154478073
---
linear:
  x: 0.4999999403953552
  y: 0.0029021420050412416
  z: 0.0
angular:
  x: 0.0
  y: 0.0
  z: 0.05485158413648605
---
linear:
  x: 0.4999561309814453
  y: -0.001021346659399569
  z: 0.0
angular:
  x: 0.0
  y: 0.0
  z: 0.009789354167878628
---
linear:
  x: 0.49999016523361206
  y: -0.0052453745156526566
  z: 0.0
angular:
  x: 0.0
  y: 0.0
  z: -0.019358402118086815
---
linear:
  x: 0.49999338388442993
  y: -0.00883574690669775
  z: 0.0
angular:
  x: 0.0
  y: 0.0
  z: -0.036339566111564636
---
linear:
  x: 0.5
  y: -0.012208607979118824
  z: 0.0
angular:
  x: 0.0
  y: 0.0
  z: -0.046100862324237823
---
linear:
  x: 0.5
  y: -0.015351861715316772
  z: 0.0
angular:
  x: 0.0
  y: 0.0
  z: -0.05528271198272705
---
linear:
  x: 0.5
  y: -0.017804650589823723
  z: 0.0
angular:
  x: 0.0
  y: 0.0
  z: -0.0584198422729969
---
linear:
  x: 0.5
  y: -0.020318325608968735
  z: 0.0
angular:
  x: 0.0
  y: 0.0
  z: -0.0652368813753128
---
linear:
  x: 0.5
  y: -0.021897396072745323
  z: 0.0
angular:
  x: 0.0
  y: 0.0
  z: -0.06364063173532486
---
linear:
  x: 0.4999999403953552
  y: -0.023496011272072792
  z: 0.0
angular:
  x: 0.0
  y: 0.0
  z: -0.06627766042947769
---
linear:
  x: 0.4999999403953552
  y: -0.02480144612491131
  z: 0.0
angular:
  x: 0.0
  y: 0.0
  z: -0.06848707795143127
---
linear:
  x: 0.4999999403953552
  y: -0.025896606966853142
  z: 0.0
angular:
  x: 0.0
  y: 0.0
  z: -0.07180621474981308
---
linear:
  x: 0.4999999403953552
  y: -0.026251085102558136
  z: 0.0
angular:
  x: 0.0
  y: 0.0
  z: -0.06667794287204742
---
linear:
  x: 0.4999999403953552
  y: -0.026823516935110092
  z: 0.0
angular:
  x: 0.0
  y: 0.0
  z: -0.065752312541008
---
linear:
  x: 0.4999999403953552
  y: -0.02678012102842331
  z: 0.0
angular:
  x: 0.0
  y: 0.0
  z: -0.05655485764145851
---
linear:
  x: 0.4999999403953552
  y: -0.027263937518000603
  z: 0.0
angular:
  x: 0.0
  y: 0.0
  z: -0.05522272363305092
---
linear:
  x: 0.4999999403953552
  y: -0.027113255113363266
  z: 0.0
angular:
  x: 0.0
  y: 0.0
  z: -0.04539293795824051
---
linear:
  x: 0.4999999403953552
  y: -0.02734990045428276
  z: 0.0
angular:
  x: 0.0
  y: 0.0
  z: -0.041870761662721634
---
linear:
  x: 0.4999999403953552
  y: -0.026959983631968498
  z: 0.0
angular:
  x: 0.0
  y: 0.0
  z: -0.03143095597624779
---
linear:
  x: 0.4999999403953552
  y: -0.026618855074048042
  z: 0.0
angular:
  x: 0.0
  y: 0.0
  z: -0.024737991392612457
---
linear:
  x: 0.4999999403953552
  y: -0.024989454075694084
  z: 0.0
angular:
  x: 0.0
  y: 0.0
  z: -0.006749202497303486
---
linear:
  x: 0.4999999403953552
  y: -0.023630088195204735
  z: 0.0
angular:
  x: 0.0
  y: 0.0
  z: 0.0023356638848781586
---
linear:
  x: 0.4999999403953552
  y: -0.023612085729837418
  z: 0.0
angular:
  x: 0.0
  y: 0.0
  z: -0.004083192907273769
---
linear:
  x: 0.4999999403953552
  y: -0.023325003683567047
  z: 0.0
angular:
  x: 0.0
  y: 0.0
  z: -0.0058803861029446125
---
linear:
  x: 0.4999999403953552
  y: -0.022000251337885857
  z: 0.0
angular:
  x: 0.0
  y: 0.0
  z: 0.006713523529469967
---
linear:
  x: 0.4999999403953552
  y: -0.020290350541472435
  z: 0.0
angular:
  x: 0.0
  y: 0.0
  z: 0.02255905233323574
---
linear:
  x: 0.4999999403953552
  y: -0.018686087802052498
  z: 0.0
angular:
  x: 0.0
  y: 0.0
  z: 0.03419708460569382
---
linear:
  x: 0.4999999403953552
  y: -0.017028527334332466
  z: 0.0
angular:
  x: 0.0
  y: 0.0
  z: 0.043435774743556976
---
linear:
  x: 0.4999999403953552
  y: -0.01529434323310852
  z: 0.0
angular:
  x: 0.0
  y: 0.0
  z: 0.050910066813230515
---
linear:
  x: 0.4999999403953552
  y: -0.011696748435497284
  z: 0.0
angular:
  x: 0.0
  y: 0.0
  z: 0.07647449523210526
---
linear:
  x: 0.4999999403953552
  y: -0.00838718842715025
  z: 0.0
angular:
  x: 0.0
  y: 0.0
  z: 0.0908043384552002
---
linear:
  x: 0.4999999403953552
  y: -0.004674619995057583
  z: 0.0
angular:
  x: 0.0
  y: 0.0
  z: 0.10670746117830276
---
linear:
  x: 0.4999999403953552
  y: -0.0013638610253110528
  z: 0.0
angular:
  x: 0.0
  y: 0.0
  z: 0.11433171480894089
---
linear:
  x: 0.4999999403953552
  y: 0.0021827248856425285
  z: 0.0
angular:
  x: 0.0
  y: 0.0
  z: 0.1274830400943756
---
linear:
  x: 0.4999999403953552
  y: 0.0029799211770296097
  z: 0.0
angular:
  x: 0.0
  y: 0.0
  z: 0.1130925714969635
---
linear:
  x: 0.4999999403953552
  y: 0.004714935086667538
  z: 0.0
angular:
  x: 0.0
  y: 0.0
  z: 0.11781873553991318
---
linear:
  x: 0.4999999403953552
  y: 0.005577980075031519
  z: 0.0
angular:
  x: 0.0
  y: 0.0
  z: 0.11381737142801285
---
linear:
  x: 0.4999999403953552
  y: 0.007157966494560242
  z: 0.0
angular:
  x: 0.0
  y: 0.0
  z: 0.12260154634714127
---
linear:
  x: 0.4999999403953552
  y: 0.008098612539470196
  z: 0.0
angular:
  x: 0.0
  y: 0.0
  z: 0.12136960029602051
---
linear:
  x: 0.4999999403953552
  y: 0.009298578836023808
  z: 0.0
angular:
  x: 0.0
  y: 0.0
  z: 0.12527339160442352
---
linear:
  x: 0.4999999403953552
  y: 0.010171844623982906
  z: 0.0
angular:
  x: 0.0
  y: 0.0
  z: 0.12334563583135605
---
linear:
  x: 0.4999999403953552
  y: 0.011810583993792534
  z: 0.0
angular:
  x: 0.0
  y: 0.0
  z: 0.1325237900018692
---
linear:
  x: 0.4999999403953552
  y: 0.012921838089823723
  z: 0.0
angular:
  x: 0.0
  y: 0.0
  z: 0.13185372948646545
---
linear:
  x: 0.49995702505111694
  y: 0.007664474658668041
  z: 0.0
angular:
  x: 0.0
  y: 0.0
  z: 0.07874434441328049
---
linear:
  x: 0.49999040365219116
  y: 0.003908907528966665
  z: 0.0
angular:
  x: 0.0
  y: 0.0
  z: 0.04937184602022171
---
linear:
  x: 0.4999935030937195
  y: 0.0003796108067035675
  z: 0.0
angular:
  x: 0.0
  y: 0.0
  z: 0.03378159552812576
---
linear:
  x: 0.5
  y: -0.0029110852628946304
  z: 0.0
angular:
  x: 0.0
  y: 0.0
  z: 0.023089386522769928
---
linear:
  x: 0.5
  y: -0.0053823101334273815
  z: 0.0
angular:
  x: 0.0
  y: 0.0
  z: 0.021873552352190018
---
linear:
  x: 0.5
  y: -0.008545352146029472
  z: 0.0
angular:
  x: 0.0
  y: 0.0
  z: 0.00723338034003973
---
linear:
  x: 0.5
  y: -0.01051841489970684
  z: 0.0
angular:
  x: 0.0
  y: 0.0
  z: 0.003348692087456584
---
linear:
  x: 0.5
  y: -0.01201291661709547
  z: 0.0
angular:
  x: 0.0
  y: 0.0
  z: 0.0019266693852841854
---
linear:
  x: 0.4999999403953552
  y: -0.012935228645801544
  z: 0.0
angular:
  x: 0.0
  y: 0.0
  z: 0.0040739551186561584
---
linear:
  x: 0.4999999403953552
  y: -0.01342596672475338
  z: 0.0
angular:
  x: 0.0
  y: 0.0
  z: 0.0081023583188653
---
linear:
  x: 0.4999999403953552
  y: -0.015135793015360832
  z: 0.0
angular:
  x: 0.0
  y: 0.0
  z: -0.0021669967100024223
---
linear:
  x: 0.4999999403953552
  y: -0.016090886667370796
  z: 0.0
angular:
  x: 0.0
  y: 0.0
  z: -0.0027218209579586983
---
linear:
  x: 0.4999999403953552
  y: -0.017076263204216957
  z: 0.0
angular:
  x: 0.0
  y: 0.0
  z: -0.0022561918012797832
---
linear:
  x: 0.4999999403953552
  y: -0.017643047496676445
  z: 0.0
angular:
  x: 0.0
  y: 0.0
  z: 0.0026992978528141975
---
linear:
  x: 0.4999999403953552
  y: -0.018108878284692764
  z: 0.0
angular:
  x: 0.0
  y: 0.0
  z: 0.0073065548203885555
---
linear:
  x: 0.4999999403953552
  y: -0.018220020458102226
  z: 0.0
angular:
  x: 0.0
  y: 0.0
  z: 0.014155879616737366
---
linear:
  x: 0.4999999403953552
  y: -0.018074246123433113
  z: 0.0
angular:
  x: 0.0
  y: 0.0
  z: 0.021173730492591858
---
linear:
  x: 0.4999999403953552
  y: -0.017609581351280212
  z: 0.0
angular:
  x: 0.0
  y: 0.0
  z: 0.027823718264698982
---
linear:
  x: 0.4999999403953552
  y: -0.016976898536086082
  z: 0.0
angular:
  x: 0.0
  y: 0.0
  z: 0.03405413776636124
---
linear:
  x: 0.4999551773071289
  y: -0.01587633602321148
  z: 0.0
angular:
  x: 0.0
  y: 0.0
  z: 0.04316001385450363
---
linear:
  x: 0.4993775486946106
  y: -0.01504310593008995
  z: 0.0
angular:
  x: 0.0
  y: 0.0
  z: 0.0502861924469471
---
linear:
  x: 0.4994018077850342
  y: -0.01406000554561615
  z: 0.0
angular:
  x: 0.0
  y: 0.0
  z: 0.05683066323399544
---
linear:
  x: 0.49911394715309143
  y: -0.012960318475961685
  z: 0.0
angular:
  x: 0.0
  y: 0.0
  z: 0.06416445225477219
---
linear:
  x: 0.49832892417907715
  y: -0.011570867151021957
  z: 0.0
angular:
  x: 0.0
  y: 0.0
  z: 0.07226679474115372
---
linear:
  x: 0.4962914288043976
  y: -0.00962912943214178
  z: 0.0
angular:
  x: 0.0
  y: 0.0
  z: 0.08782263100147247
---
linear:
  x: 0.4934835433959961
  y: -0.007446140516549349
  z: 0.0
angular:
  x: 0.0
  y: 0.0
  z: 0.09781947731971741
---
linear:
  x: 0.4903264045715332
  y: -0.004732850007712841
  z: 0.0
angular:
  x: 0.0
  y: 0.0
  z: 0.11019408702850342
---
linear:
  x: 0.4865517020225525
  y: -0.0022870732937008142
  z: 0.0
angular:
  x: 0.0
  y: 0.0
  z: 0.11549883335828781
---
linear:
  x: 0.48282235860824585
  y: 0.0005002733087167144
  z: 0.0
angular:
  x: 0.0
  y: 0.0
  z: 0.12647651135921478
---
linear:
  x: 0.47877076268196106
  y: 0.0031496593728661537
  z: 0.0
angular:
  x: 0.0
  y: 0.0
  z: 0.12999777495861053
---
linear:
  x: 0.4750332832336426
  y: 0.006399885285645723
  z: 0.0
angular:
  x: 0.0
  y: 0.0
  z: 0.14272427558898926
---
linear:
  x: 0.47137564420700073
  y: 0.008974789641797543
  z: 0.0
angular:
  x: 0.0
  y: 0.0
  z: 0.14554862678050995
---
linear:
  x: 0.46869131922721863
  y: 0.01152091659605503
  z: 0.0
angular:
  x: 0.0
  y: 0.0
  z: 0.1577518880367279
---
linear:
  x: 0.46518611907958984
  y: 0.013156887143850327
  z: 0.0
angular:
  x: 0.0
  y: 0.0
  z: 0.1579739898443222
---
linear:
  x: 0.46199309825897217
  y: 0.01640230417251587
  z: 0.0
angular:
  x: 0.0
  y: 0.0
  z: 0.1720781922340393
---
linear:
  x: 0.4587300717830658
  y: 0.018475163727998734
  z: 0.0
angular:
  x: 0.0
  y: 0.0
  z: 0.1734783947467804
---
linear:
  x: 0.45574140548706055
  y: 0.021640440449118614
  z: 0.0
angular:
  x: 0.0
  y: 0.0
  z: 0.1869124174118042
---
linear:
  x: 0.4536440372467041
  y: 0.022817304357886314
  z: 0.0
angular:
  x: 0.0
  y: 0.0
  z: 0.18558713793754578
---
linear:
  x: 0.45098674297332764
  y: 0.02550211176276207
  z: 0.0
angular:
  x: 0.0
  y: 0.0
  z: 0.2034376710653305
---
linear:
  x: 0.44855353236198425
  y: 0.02783171832561493
  z: 0.0
angular:
  x: 0.0
  y: 0.0
  z: 0.2128509134054184
---
linear:
  x: 0.44668686389923096
  y: 0.03118983469903469
  z: 0.0
angular:
  x: 0.0
  y: 0.0
  z: 0.23406670987606049
---
linear:
  x: 0.446976900100708
  y: 0.028274863958358765
  z: 0.0
angular:
  x: 0.0
  y: 0.0
  z: 0.22065041959285736
---
linear:
  x: 0.44877904653549194
  y: 0.026484031230211258
  z: 0.0
angular:
  x: 0.0
  y: 0.0
  z: 0.2266383022069931
---
linear:
  x: 0.449384868144989
  y: 0.023267876356840134
  z: 0.0
angular:
  x: 0.0
  y: 0.0
  z: 0.2203972488641739
---
linear:
  x: 0.449710875749588
  y: 0.020235147327184677
  z: 0.0
angular:
  x: 0.0
  y: 0.0
  z: 0.210902601480484
---
linear:
  x: 0.44858890771865845
  y: 0.018912309780716896
  z: 0.0
angular:
  x: 0.0
  y: 0.0
  z: 0.2160678505897522
---
linear:
  x: 0.44769051671028137
  y: 0.017574861645698547
  z: 0.0
angular:
  x: 0.0
  y: 0.0
  z: 0.21476571261882782
---
linear:
  x: 0.4465785622596741
  y: 0.0174173004925251
  z: 0.0
angular:
  x: 0.0
  y: 0.0
  z: 0.2273261845111847
---
linear:
  x: 0.4451909065246582
  y: 0.016626710072159767
  z: 0.0
angular:
  x: 0.0
  y: 0.0
  z: 0.23007389903068542
---
linear:
  x: 0.44240954518318176
  y: 0.017892936244606972
  z: 0.0
angular:
  x: 0.0
  y: 0.0
  z: 0.24675601720809937
---
linear:
  x: 0.4402236044406891
  y: 0.019022468477487564
  z: 0.0
angular:
  x: 0.0
  y: 0.0
  z: 0.25288668274879456
---
linear:
  x: 0.43810614943504333
  y: 0.020606523379683495
  z: 0.0
angular:
  x: 0.0
  y: 0.0
  z: 0.26717865467071533
---
linear:
  x: 0.4361051917076111
  y: 0.02165123075246811
  z: 0.0
angular:
  x: 0.0
  y: 0.0
  z: 0.27108290791511536
---
linear:
  x: 0.4336785078048706
  y: 0.024109788239002228
  z: 0.0
angular:
  x: 0.0
  y: 0.0
  z: 0.28867727518081665
---
linear:
  x: 0.4329472780227661
  y: 0.023909587413072586
  z: 0.0
angular:
  x: 0.0
  y: 0.0
  z: 0.2890099883079529
---
linear:
  x: 0.4315703511238098
  y: 0.025307824835181236
  z: 0.0
angular:
  x: 0.0
  y: 0.0
  z: 0.30594098567962646
---
linear:
  x: 0.4317386746406555
  y: 0.02435772493481636
  z: 0.0
angular:
  x: 0.0
  y: 0.0
  z: 0.3094055950641632
---
linear:
  x: 0.43061578273773193
  y: 0.024983825162053108
  z: 0.0
angular:
  x: 0.0
  y: 0.0
  z: 0.3270741403102875
---
linear:
  x: 0.4308483302593231
  y: 0.02450907975435257
  z: 0.0
angular:
  x: 0.0
  y: 0.0
  z: 0.326902836561203
---
linear:
  x: 0.430300772190094
  y: 0.02414119616150856
  z: 0.0
angular:
  x: 0.0
  y: 0.0
  z: 0.34127283096313477
---
linear:
  x: 0.43103858828544617
  y: 0.02287701517343521
  z: 0.0
angular:
  x: 0.0
  y: 0.0
  z: 0.3422793745994568
---
linear:
  x: 0.432874470949173
  y: 0.019567329436540604
  z: 0.0
angular:
  x: 0.0
  y: 0.0
  z: 0.335799902677536
---
linear:
  x: 0.4345478415489197
  y: 0.01633678562939167
  z: 0.0
angular:
  x: 0.0
  y: 0.0
  z: 0.3278503715991974
---
linear:
  x: 0.4348111152648926
  y: 0.013357819989323616
  z: 0.0
angular:
  x: 0.0
  y: 0.0
  z: 0.32960546016693115
---
linear:
  x: 0.4368782639503479
  y: 0.009133322164416313
  z: 0.0
angular:
  x: 0.0
  y: 0.0
  z: 0.3256789743900299
---
linear:
  x: 0.4362582564353943
  y: 0.00688018836081028
  z: 0.0
angular:
  x: 0.0
  y: 0.0
  z: 0.33601582050323486
---
linear:
  x: 0.43711724877357483
  y: 0.004359428770840168
  z: 0.0
angular:
  x: 0.0
  y: 0.0
  z: 0.3380551040172577
---
linear:
  x: 0.4357716143131256
  y: 0.002865302376449108
  z: 0.0
angular:
  x: 0.0
  y: 0.0
  z: 0.3533918857574463
---
linear:
  x: 0.4352409839630127
  y: 0.0015977786388248205
  z: 0.0
angular:
  x: 0.0
  y: 0.0
  z: 0.36174699664115906
---
linear:
  x: 0.43165573477745056
  y: 0.002841686364263296
  z: 0.0
angular:
  x: 0.0
  y: 0.0
  z: 0.3884732723236084
---
linear:
  x: 0.4314741790294647
  y: 0.0021473451051861048
  z: 0.0
angular:
  x: 0.0
  y: 0.0
  z: 0.39773324131965637
---
linear:
  x: 0.4281984567642212
  y: 0.003244193270802498
  z: 0.0
angular:
  x: 0.0
  y: 0.0
  z: 0.4234837591648102
---
linear:
  x: 0.4280821979045868
  y: 0.0021375520154833794
  z: 0.0
angular:
  x: 0.0
  y: 0.0
  z: 0.43612515926361084
---
linear:
  x: 0.42531055212020874
  y: 0.0028691296465694904
  z: 0.0
angular:
  x: 0.0
  y: 0.0
  z: 0.464373916387558
---
linear:
  x: 0.4239807724952698
  y: 0.003100356087088585
  z: 0.0
angular:
  x: 0.0
  y: 0.0
  z: 0.4806671440601349
---
linear:
  x: 0.42183929681777954
  y: 0.003430122509598732
  z: 0.0
angular:
  x: 0.0
  y: 0.0
  z: 0.5060935616493225
---
linear:
  x: 0.4219072163105011
  y: 0.002131938934326172
  z: 0.0
angular:
  x: 0.0
  y: 0.0
  z: 0.5170134902000427
---
linear:
  x: 0.41882753372192383
  y: 0.0027284445241093636
  z: 0.0
angular:
  x: 0.0
  y: 0.0
  z: 0.5482335686683655
---
linear:
  x: 0.4175182282924652
  y: 0.002451579086482525
  z: 0.0
angular:
  x: 0.0
  y: 0.0
  z: 0.5621137619018555
---
linear:
  x: 0.4122220575809479
  y: 0.0045782821252942085
  z: 0.0
angular:
  x: 0.0
  y: 0.0
  z: 0.6007139682769775
---
linear:
  x: 0.40942826867103577
  y: 0.006326860282570124
  z: 0.0
angular:
  x: 0.0
  y: 0.0
  z: 0.6161277890205383
---
linear:
  x: 0.3999835252761841
  y: 0.011031323112547398
  z: 0.0
angular:
  x: 0.0
  y: 0.0
  z: 0.6602654457092285
---
linear:
  x: 0.38507139682769775
  y: 0.019275937229394913
  z: 0.0
angular:
  x: 0.0
  y: 0.0
  z: 0.6887545585632324
---
linear:
  x: 0.37536823749542236
  y: 0.02491343393921852
  z: 0.0
angular:
  x: 0.0
  y: 0.0
  z: 0.7291819453239441
---
linear:
  x: 0.3666110336780548
  y: 0.03129987791180611
  z: 0.0
angular:
  x: 0.0
  y: 0.0
  z: 0.7450907826423645
---
linear:
  x: 0.35365352034568787
  y: 0.0390004925429821
  z: 0.0
angular:
  x: 0.0
  y: 0.0
  z: 0.7890675663948059
---
linear:
  x: 0.3526298999786377
  y: 0.04318000748753548
  z: 0.0
angular:
  x: 0.0
  y: 0.0
  z: 0.7949142456054688
---
linear:
  x: 0.34446829557418823
  y: 0.04932606220245361
  z: 0.0
angular:
  x: 0.0
  y: 0.0
  z: 0.8339127898216248
---
linear:
  x: 0.3388708233833313
  y: 0.055368226021528244
  z: 0.0
angular:
  x: 0.0
  y: 0.0
  z: 0.8405802845954895
---
linear:
  x: 0.329284131526947
  y: 0.06225427985191345
  z: 0.0
angular:
  x: 0.0
  y: 0.0
  z: 0.885402262210846
---
linear:
  x: 0.3206758201122284
  y: 0.06935274600982666
  z: 0.0
angular:
  x: 0.0
  y: 0.0
  z: 0.8923819661140442
---
linear:
  x: 0.31608718633651733
  y: 0.07503260672092438
  z: 0.0
angular:
  x: 0.0
  y: 0.0
  z: 0.9210439920425415
---
linear:
  x: 0.31095895171165466
  y: 0.08075843006372452
  z: 0.0
angular:
  x: 0.0
  y: 0.0
  z: 0.9206119179725647
---
linear:
  x: 0.3009174168109894
  y: 0.08758246153593063
  z: 0.0
angular:
  x: 0.0
  y: 0.0
  z: 0.9475722312927246
---
linear:
  x: 0.2985612154006958
  y: 0.09184323996305466
  z: 0.0
angular:
  x: 0.0
  y: 0.0
  z: 0.943798303604126
---
linear:
  x: 0.2917160093784332
  y: 0.09810952097177505
  z: 0.0
angular:
  x: 0.0
  y: 0.0
  z: 0.9681585431098938
---
linear:
  x: 0.29906970262527466
  y: 0.09888266026973724
  z: 0.0
angular:
  x: 0.0
  y: 0.0
  z: 0.945152223110199
---
linear:
  x: 0.29798874258995056
  y: 0.10245033353567123
  z: 0.0
angular:
  x: 0.0
  y: 0.0
  z: 0.9604915976524353
---
linear:
  x: 0.29898500442504883
  y: 0.10439295321702957
  z: 0.0
angular:
  x: 0.0
  y: 0.0
  z: 0.947951078414917
---
linear:
  x: 0.2989760637283325
  y: 0.10745031386613846
  z: 0.0
angular:
  x: 0.0
  y: 0.0
  z: 0.9650774002075195
---
linear:
  x: 0.29780128598213196
  y: 0.10929775983095169
  z: 0.0
angular:
  x: 0.0
  y: 0.0
  z: 0.9541358351707458
---
linear:
  x: 0.2977176010608673
  y: 0.11155304312705994
  z: 0.0
angular:
  x: 0.0
  y: 0.0
  z: 0.9689844846725464
---
linear:
  x: 0.3039318025112152
  y: 0.1112000122666359
  z: 0.0
angular:
  x: 0.0
  y: 0.0
  z: 0.9506399035453796
---
linear:
  x: 0.3131689131259918
  y: 0.10971255600452423
  z: 0.0
angular:
  x: 0.0
  y: 0.0
  z: 0.9492534399032593
---
linear:
  x: 0.3145582675933838
  y: 0.1101180762052536
  z: 0.0
angular:
  x: 0.0
  y: 0.0
  z: 0.9349813461303711
---
linear:
  x: 0.3166484534740448
  y: 0.11104728281497955
  z: 0.0
angular:
  x: 0.0
  y: 0.0
  z: 0.947432816028595
---
linear:
  x: 0.31518298387527466
  y: 0.11220370978116989
  z: 0.0
angular:
  x: 0.0
  y: 0.0
  z: 0.937950849533081
---
linear:
  x: 0.3121028542518616
  y: 0.11505801975727081
  z: 0.0
angular:
  x: 0.0
  y: 0.0
  z: 0.9570415616035461
---
linear:
  x: 0.31041067838668823
  y: 0.11615308374166489
  z: 0.0
angular:
  x: 0.0
  y: 0.0
  z: 0.9483675360679626
---
linear:
  x: 0.3083406388759613
  y: 0.11906374990940094
  z: 0.0
angular:
  x: 0.0
  y: 0.0
  z: 0.9685384035110474
---
linear:
  x: 0.3105417788028717
  y: 0.11981701850891113
  z: 0.0
angular:
  x: 0.0
  y: 0.0
  z: 0.9588198065757751
---
linear:
  x: 0.3113403022289276
  y: 0.1228225976228714
  z: 0.0
angular:
  x: 0.0
  y: 0.0
  z: 0.9735175967216492
---
linear:
  x: 0.315873384475708
  y: 0.12339785695075989
  z: 0.0
angular:
  x: 0.0
  y: 0.0
  z: 0.9577222466468811
---
linear:
  x: 0.31947919726371765
  y: 0.12594394385814667
  z: 0.0
angular:
  x: 0.0
  y: 0.0
  z: 0.9690629243850708
---
linear:
  x: 0.326224684715271
  y: 0.1257694810628891
  z: 0.0
angular:
  x: 0.0
  y: 0.0
  z: 0.950997531414032
---
linear:
  x: 0.326224684715271
  y: 0.1257694810628891
  z: 0.0
angular:
  x: 0.0
  y: 0.0
  z: 0.950997531414032
---
linear:
  x: 0.3332156538963318
  y: 0.12693718075752258
  z: 0.0
angular:
  x: 0.0
  y: 0.0
  z: 0.963042140007019
---
linear:
  x: 0.34213748574256897
  y: 0.12895381450653076
  z: 0.0
angular:
  x: 0.0
  y: 0.0
  z: 0.9550544023513794
---
linear:
  x: 0.34619373083114624
  y: 0.12911133468151093
  z: 0.0
angular:
  x: 0.0
  y: 0.0
  z: 0.9312404990196228
---
linear:
  x: 0.35146409273147583
  y: 0.13066823780536652
  z: 0.0
angular:
  x: 0.0
  y: 0.0
  z: 0.9417324662208557
---
linear:
  x: 0.35146409273147583
  y: 0.13066823780536652
  z: 0.0
angular:
  x: 0.0
  y: 0.0
  z: 0.9417324662208557
---
linear:
  x: 0.35777607560157776
  y: 0.13029175996780396
  z: 0.0
angular:
  x: 0.0
  y: 0.0
  z: 0.9185453653335571
---
linear:
  x: 0.37299221754074097
  y: 0.13022717833518982
  z: 0.0
angular:
  x: 0.0
  y: 0.0
  z: 0.8990768790245056
---
linear:
  x: 0.38401928544044495
  y: 0.12786251306533813
  z: 0.0
angular:
  x: 0.0
  y: 0.0
  z: 0.8564826250076294
---
linear:
  x: 0.39689430594444275
  y: 0.1243228018283844
  z: 0.0
angular:
  x: 0.0
  y: 0.0
  z: 0.8033708930015564
---
linear:
  x: 0.39689430594444275
  y: 0.1243228018283844
  z: 0.0
angular:
  x: 0.0
  y: 0.0
  z: 0.8033708930015564
---
linear:
  x: 0.4235568046569824
  y: 0.1171506941318512
  z: 0.0
angular:
  x: 0.0
  y: 0.0
  z: 0.7517536878585815
---
linear:
  x: 0.4330815076828003
  y: 0.11514928191900253
  z: 0.0
angular:
  x: 0.0
  y: 0.0
  z: 0.7433167695999146
---
linear:
  x: 0.4385862946510315
  y: 0.11223417520523071
  z: 0.0
angular:
  x: 0.0
  y: 0.0
  z: 0.7101165056228638
---
linear:
  x: 0.44247010350227356
  y: 0.11215974390506744
  z: 0.0
angular:
  x: 0.0
  y: 0.0
  z: 0.7099988460540771
---
linear:
  x: 0.4462546706199646
  y: 0.10926336795091629
  z: 0.0
angular:
  x: 0.0
  y: 0.0
  z: 0.6796581745147705
---
linear:
  x: 0.45109423995018005
  y: 0.10870423167943954
  z: 0.0
angular:
  x: 0.0
  y: 0.0
  z: 0.6811295747756958
---
linear:
  x: 0.45356443524360657
  y: 0.10643157362937927
  z: 0.0
angular:
  x: 0.0
  y: 0.0
  z: 0.6565584540367126
---
linear:
  x: 0.4574279189109802
  y: 0.10635966807603836
  z: 0.0
angular:
  x: 0.0
  y: 0.0
  z: 0.663632869720459
---
linear:
  x: 0.4589761197566986
  y: 0.10525720566511154
  z: 0.0
angular:
  x: 0.0
  y: 0.0
  z: 0.6560102105140686
---
linear:
  x: 0.4609081745147705
  y: 0.10543269664049149
  z: 0.0
angular:
  x: 0.0
  y: 0.0
  z: 0.663783848285675
---
linear:
  x: 0.4608188569545746
  y: 0.10466752201318741
  z: 0.0
angular:
  x: 0.0
  y: 0.0
  z: 0.6499829292297363
---
linear:
  x: 0.46324238181114197
  y: 0.10514664649963379
  z: 0.0
angular:
  x: 0.0
  y: 0.0
  z: 0.6568657755851746
---
linear:
  x: 0.46518734097480774
  y: 0.10311795771121979
  z: 0.0
angular:
  x: 0.0
  y: 0.0
  z: 0.6370346546173096
---
linear:
  x: 0.46876898407936096
  y: 0.10306572914123535
  z: 0.0
angular:
  x: 0.0
  y: 0.0
  z: 0.635962724685669
---
linear:
  x: 0.47089603543281555
  y: 0.10179230570793152
  z: 0.0
angular:
  x: 0.0
  y: 0.0
  z: 0.6154500246047974
---
linear:
  x: 0.47554275393486023
  y: 0.10214607417583466
  z: 0.0
angular:
  x: 0.0
  y: 0.0
  z: 0.6190703511238098
---
linear:
  x: 0.47757968306541443
  y: 0.10127590596675873
  z: 0.0
angular:
  x: 0.0
  y: 0.0
  z: 0.6006201505661011
---
linear:
  x: 0.48260289430618286
  y: 0.10129521042108536
  z: 0.0
angular:
  x: 0.0
  y: 0.0
  z: 0.6039062142372131
---
linear:
  x: 0.4896930456161499
  y: 0.09221991896629333
  z: 0.0
angular:
  x: 0.0
  y: 0.0
  z: 0.5228418111801147
---
linear:
  x: 0.4936467409133911
  y: 0.0876876637339592
  z: 0.0
angular:
  x: 0.0
  y: 0.0
  z: 0.49654388427734375
---
linear:
  x: 0.49684691429138184
  y: 0.0814962163567543
  z: 0.0
angular:
  x: 0.0
  y: 0.0
  z: 0.4518670439720154
---
linear:
  x: 0.4990208148956299
  y: 0.0782412514090538
  z: 0.0
angular:
  x: 0.0
  y: 0.0
  z: 0.4445308446884155
---
linear:
  x: 0.4974495470523834
  y: 0.07456248253583908
  z: 0.0
angular:
  x: 0.0
  y: 0.0
  z: 0.42221003770828247
---
linear:
  x: 0.4962148368358612
  y: 0.07357490807771683
  z: 0.0
angular:
  x: 0.0
  y: 0.0
  z: 0.42913803458213806
---
linear:
  x: 0.4923868477344513
  y: 0.07141374796628952
  z: 0.0
angular:
  x: 0.0
  y: 0.0
  z: 0.4133141040802002
---
linear:
  x: 0.49054640531539917
  y: 0.07130378484725952
  z: 0.0
angular:
  x: 0.0
  y: 0.0
  z: 0.42185065150260925
---
linear:
  x: 0.48724988102912903
  y: 0.07014717906713486
  z: 0.0
angular:
  x: 0.0
  y: 0.0
  z: 0.4093289375305176
---
linear:
  x: 0.4865221381187439
  y: 0.07083702087402344
  z: 0.0
angular:
  x: 0.0
  y: 0.0
  z: 0.42118507623672485
---
linear:
  x: 0.48382022976875305
  y: 0.07029452174901962
  z: 0.0
angular:
  x: 0.0
  y: 0.0
  z: 0.41009026765823364
---
linear:
  x: 0.4829361140727997
  y: 0.0699743703007698
  z: 0.0
angular:
  x: 0.0
  y: 0.0
  z: 0.40593090653419495
---
linear:
  x: 0.4829361140727997
  y: 0.0699743703007698
  z: 0.0
angular:
  x: 0.0
  y: 0.0
  z: 0.40593090653419495
---
linear:
  x: 0.48200321197509766
  y: 0.06863445788621902
  z: 0.0
angular:
  x: 0.0
  y: 0.0
  z: 0.3881224989891052
---
linear:
  x: 0.481856107711792
  y: 0.06760223954916
  z: 0.0
angular:
  x: 0.0
  y: 0.0
  z: 0.37948113679885864
---
linear:
  x: 0.4828987419605255
  y: 0.06836029142141342
  z: 0.0
angular:
  x: 0.0
  y: 0.0
  z: 0.39305394887924194
---
linear:
  x: 0.4815710783004761
  y: 0.06695614755153656
  z: 0.0
angular:
  x: 0.0
  y: 0.0
  z: 0.3786444365978241
---
linear:
  x: 0.4823070764541626
  y: 0.06757714599370956
  z: 0.0
angular:
  x: 0.0
  y: 0.0
  z: 0.3895905315876007
---
linear:
  x: 0.48053669929504395
  y: 0.06673232465982437
  z: 0.0
angular:
  x: 0.0
  y: 0.0
  z: 0.3759501576423645
---
linear:
  x: 0.4818764328956604
  y: 0.06807290762662888
  z: 0.0
angular:
  x: 0.0
  y: 0.0
  z: 0.38869819045066833
---
linear:
  x: 0.4863925576210022
  y: 0.06036243215203285
  z: 0.0
angular:
  x: 0.0
  y: 0.0
  z: 0.34645459055900574
---
linear:
  x: 0.49245354533195496
  y: 0.05514973774552345
  z: 0.0
angular:
  x: 0.0
  y: 0.0
  z: 0.33693259954452515
---
linear:
  x: 0.49409326910972595
  y: 0.04752412810921669
  z: 0.0
angular:
  x: 0.0
  y: 0.0
  z: 0.3029631972312927
---
linear:
  x: 0.4958364963531494
  y: 0.04354739934206009
  z: 0.0
angular:
  x: 0.0
  y: 0.0
  z: 0.30244749784469604
---
linear:
  x: 0.4928044080734253
  y: 0.03824837505817413
  z: 0.0
angular:
  x: 0.0
  y: 0.0
  z: 0.28211191296577454
---
linear:
  x: 0.4906899929046631
  y: 0.035907432436943054
  z: 0.0
angular:
  x: 0.0
  y: 0.0
  z: 0.28816860914230347
---
linear:
  x: 0.4865311086177826
  y: 0.03207169473171234
  z: 0.0
angular:
  x: 0.0
  y: 0.0
  z: 0.27327364683151245
---
linear:
  x: 0.48396679759025574
  y: 0.031444452702999115
  z: 0.0
angular:
  x: 0.0
  y: 0.0
  z: 0.28555944561958313
---
linear:
  x: 0.47950851917266846
  y: 0.029684826731681824
  z: 0.0
angular:
  x: 0.0
  y: 0.0
  z: 0.2786874771118164
---
linear:
  x: 0.4773125648498535
  y: 0.03090219758450985
  z: 0.0
angular:
  x: 0.0
  y: 0.0
  z: 0.29662150144577026
---
linear:
  x: 0.47373613715171814
  y: 0.03040490113198757
  z: 0.0
angular:
  x: 0.0
  y: 0.0
  z: 0.2978898286819458
---
linear:
  x: 0.4717716872692108
  y: 0.032108575105667114
  z: 0.0
angular:
  x: 0.0
  y: 0.0
  z: 0.3206341564655304
---
linear:
  x: 0.46702584624290466
  y: 0.03273089602589607
  z: 0.0
angular:
  x: 0.0
  y: 0.0
  z: 0.32585006952285767
---
linear:
  x: 0.4650783836841583
  y: 0.03470020368695259
  z: 0.0
angular:
  x: 0.0
  y: 0.0
  z: 0.34560123085975647
---
linear:
  x: 0.4608692526817322
  y: 0.035516101866960526
  z: 0.0
angular:
  x: 0.0
  y: 0.0
  z: 0.3444136381149292
---
linear:
  x: 0.45886483788490295
  y: 0.03982430323958397
  z: 0.0
angular:
  x: 0.0
  y: 0.0
  z: 0.3739742636680603
---
linear:
  x: 0.4563218951225281
  y: 0.04202111065387726
  z: 0.0
angular:
  x: 0.0
  y: 0.0
  z: 0.38118311762809753
---
linear:
  x: 0.4557355046272278
  y: 0.046623874455690384
  z: 0.0
angular:
  x: 0.0
  y: 0.0
  z: 0.40579530596733093
---
linear:
  x: 0.45468249917030334
  y: 0.04846975579857826
  z: 0.0
angular:
  x: 0.0
  y: 0.0
  z: 0.40364402532577515
---
linear:
  x: 0.45614656805992126
  y: 0.052330415695905685
  z: 0.0
angular:
  x: 0.0
  y: 0.0
  z: 0.4229833781719208
---
linear:
  x: 0.4562819302082062
  y: 0.05453427508473396
  z: 0.0
angular:
  x: 0.0
  y: 0.0
  z: 0.42415204644203186
---
linear:
  x: 0.46193963289260864
  y: 0.05555986985564232
  z: 0.0
angular:
  x: 0.0
  y: 0.0
  z: 0.4498680830001831
---
linear:
  x: 0.4633598029613495
  y: 0.054856251925230026
  z: 0.0
angular:
  x: 0.0
  y: 0.0
  z: 0.4494040310382843
---
linear:
  x: 0.46682533621788025
  y: 0.055400099605321884
  z: 0.0
angular:
  x: 0.0
  y: 0.0
  z: 0.46733567118644714
---
linear:
  x: 0.46648409962654114
  y: 0.05473114177584648
  z: 0.0
angular:
  x: 0.0
  y: 0.0
  z: 0.45912665128707886
---
linear:
  x: 0.4680193066596985
  y: 0.05666381120681763
  z: 0.0
angular:
  x: 0.0
  y: 0.0
  z: 0.4750807285308838
---
linear:
  x: 0.4669216275215149
  y: 0.05830365791916847
  z: 0.0
angular:
  x: 0.0
  y: 0.0
  z: 0.47650986909866333
---
linear:
  x: 0.46592095494270325
  y: 0.06269127130508423
  z: 0.0
angular:
  x: 0.0
  y: 0.0
  z: 0.5012378096580505
---
linear:
  x: 0.4618128836154938
  y: 0.06634706258773804
  z: 0.0
angular:
  x: 0.0
  y: 0.0
  z: 0.5028541088104248
---
linear:
  x: 0.4600289762020111
  y: 0.07158137857913971
  z: 0.0
angular:
  x: 0.0
  y: 0.0
  z: 0.5199838876724243
---
linear:
  x: 0.45570722222328186
  y: 0.07584752142429352
  z: 0.0
angular:
  x: 0.0
  y: 0.0
  z: 0.5150513052940369
---
linear:
  x: 0.4543943703174591
  y: 0.0811733603477478
  z: 0.0
angular:
  x: 0.0
  y: 0.0
  z: 0.5256421566009521
---
linear:
  x: 0.45122647285461426
  y: 0.08565165102481842
  z: 0.0
angular:
  x: 0.0
  y: 0.0
  z: 0.519464373588562
---
linear:
  x: 0.4503367841243744
  y: 0.09173929691314697
  z: 0.0
angular:
  x: 0.0
  y: 0.0
  z: 0.537872850894928
---
linear:
  x: 0.4481344521045685
  y: 0.0955892950296402
  z: 0.0
angular:
  x: 0.0
  y: 0.0
  z: 0.5336080193519592
---
linear:
  x: 0.44837525486946106
  y: 0.0997229591012001
  z: 0.0
angular:
  x: 0.0
  y: 0.0
  z: 0.5401042103767395
---
linear:
  x: 0.44669073820114136
  y: 0.10263320058584213
  z: 0.0
angular:
  x: 0.0
  y: 0.0
  z: 0.5282537341117859
---
linear:
  x: 0.4473016560077667
  y: 0.10570447891950607
  z: 0.0
angular:
  x: 0.0
  y: 0.0
  z: 0.5284243226051331
---
linear:
  x: 0.44645804166793823
  y: 0.1077263131737709
  z: 0.0
angular:
  x: 0.0
  y: 0.0
  z: 0.5118542313575745
---
linear:
  x: 0.4476904273033142
  y: 0.10995907336473465
  z: 0.0
angular:
  x: 0.0
  y: 0.0
  z: 0.5089331269264221
---
linear:
  x: 0.449510395526886
  y: 0.11100727319717407
  z: 0.0
angular:
  x: 0.0
  y: 0.0
  z: 0.49740949273109436
---
linear:
  x: 0.4512919783592224
  y: 0.11257113516330719
  z: 0.0
angular:
  x: 0.0
  y: 0.0
  z: 0.4936707317829132
---
linear:
  x: 0.45934632420539856
  y: 0.1080491840839386
  z: 0.0
angular:
  x: 0.0
  y: 0.0
  z: 0.43649905920028687
---
linear:
  x: 0.4668790102005005
  y: 0.10594972968101501
  z: 0.0
angular:
  x: 0.0
  y: 0.0
  z: 0.41462379693984985
---
linear:
  x: 0.4740642309188843
  y: 0.10221118479967117
  z: 0.0
angular:
  x: 0.0
  y: 0.0
  z: 0.3795226216316223
---
linear:
  x: 0.48028573393821716
  y: 0.10053309053182602
  z: 0.0
angular:
  x: 0.0
  y: 0.0
  z: 0.3669503629207611
---
linear:
  x: 0.4840838313102722
  y: 0.0986047238111496
  z: 0.0
angular:
  x: 0.0
  y: 0.0
  z: 0.347517728805542
---
linear:
  x: 0.48642370104789734
  y: 0.09854557365179062
  z: 0.0
angular:
  x: 0.0
  y: 0.0
  z: 0.34345078468322754
---
linear:
  x: 0.48661983013153076
  y: 0.09805150330066681
  z: 0.0
angular:
  x: 0.0
  y: 0.0
  z: 0.3297421634197235
---
linear:
  x: 0.4862363934516907
  y: 0.10080341249704361
  z: 0.0
angular:
  x: 0.0
  y: 0.0
  z: 0.34742307662963867
---
linear:
  x: 0.48339903354644775
  y: 0.10221000015735626
  z: 0.0
angular:
  x: 0.0
  y: 0.0
  z: 0.3433654308319092
---
linear:
  x: 0.48196548223495483
  y: 0.1042906641960144
  z: 0.0
angular:
  x: 0.0
  y: 0.0
  z: 0.34587451815605164
---
linear:
  x: 0.47919961810112
  y: 0.10515610128641129
  z: 0.0
angular:
  x: 0.0
  y: 0.0
  z: 0.33418458700180054
---
linear:
  x: 0.45694828033447266
  y: 0.10834359377622604
  z: 0.0
angular:
  x: 0.0
  y: 0.0
  z: 0.3714839816093445
---
linear:
  x: 0.4360692501068115
  y: 0.10962796211242676
  z: 0.0
angular:
  x: 0.0
  y: 0.0
  z: 0.38181689381599426
---
linear:
  x: 0.4105689823627472
  y: 0.11187215149402618
  z: 0.0
angular:
  x: 0.0
  y: 0.0
  z: 0.4049029052257538
---
linear:
  x: 0.38826286792755127
  y: 0.11304787546396255
  z: 0.0
angular:
  x: 0.0
  y: 0.0
  z: 0.40342235565185547
---
linear:
  x: 0.3646162152290344
  y: 0.11522937566041946
  z: 0.0
angular:
  x: 0.0
  y: 0.0
  z: 0.41318824887275696
---
linear:
  x: 0.3432353436946869
  y: 0.11655312031507492
  z: 0.0
angular:
  x: 0.0
  y: 0.0
  z: 0.39729028940200806
---
linear:
  x: 0.31992295384407043
  y: 0.11878598481416702
  z: 0.0
angular:
  x: 0.0
  y: 0.0
  z: 0.399612694978714
---
linear:
  x: 0.3042741119861603
  y: 0.1188155934214592
  z: 0.0
angular:
  x: 0.0
  y: 0.0
  z: 0.38648349046707153
---
linear:
  x: 0.28804299235343933
  y: 0.1196971982717514
  z: 0.0
angular:
  x: 0.0
  y: 0.0
  z: 0.38376325368881226
---
linear:
  x: 0.278467059135437
  y: 0.11537840962409973
  z: 0.0
angular:
  x: 0.0
  y: 0.0
  z: 0.36012890934944153
---
linear:
  x: 0.2751205563545227
  y: 0.10941250622272491
  z: 0.0
angular:
  x: 0.0
  y: 0.0
  z: 0.342129647731781
---
linear:
  x: 0.2712860405445099
  y: 0.10280008614063263
  z: 0.0
angular:
  x: 0.0
  y: 0.0
  z: 0.3238288164138794
---
linear:
  x: 0.263560026884079
  y: 0.09829176962375641
  z: 0.0
angular:
  x: 0.0
  y: 0.0
  z: 0.31855735182762146
---
linear:
  x: 0.25318461656570435
  y: 0.0940961241722107
  z: 0.0
angular:
  x: 0.0
  y: 0.0
  z: 0.3060820698738098
---
linear:
  x: 0.24021565914154053
  y: 0.0924321785569191
  z: 0.0
angular:
  x: 0.0
  y: 0.0
  z: 0.3042972981929779
---
linear:
  x: 0.22669340670108795
  y: 0.09024740755558014
  z: 0.0
angular:
  x: 0.0
  y: 0.0
  z: 0.2949250638484955
---
linear:
  x: 0.2175799310207367
  y: 0.0873672217130661
  z: 0.0
angular:
  x: 0.0
  y: 0.0
  z: 0.28989940881729126
---
linear:
  x: 0.2052319347858429
  y: 0.08332337439060211
  z: 0.0
angular:
  x: 0.0
  y: 0.0
  z: 0.275724321603775
---
linear:
  x: 0.1930316686630249
  y: 0.08077730238437653
  z: 0.0
angular:
  x: 0.0
  y: 0.0
  z: 0.2741405963897705
---
linear:
  x: 0.17968206107616425
  y: 0.07833193987607956
  z: 0.0
angular:
  x: 0.0
  y: 0.0
  z: 0.26364728808403015
---
linear:
  x: 0.16502243280410767
  y: 0.07729560881853104
  z: 0.0
angular:
  x: 0.0
  y: 0.0
  z: 0.26070448756217957
---
linear:
  x: 0.16049420833587646
  y: 0.07383737713098526
  z: 0.0
angular:
  x: 0.0
  y: 0.0
  z: 0.2472916841506958
---
linear:
  x: 0.15485578775405884
  y: 0.07262393832206726
  z: 0.0
angular:
  x: 0.0
  y: 0.0
  z: 0.24396681785583496
---
linear:
  x: 0.1498039811849594
  y: 0.07105567306280136
  z: 0.0
angular:
  x: 0.0
  y: 0.0
  z: 0.24103663861751556
---
linear:
  x: 0.14577805995941162
  y: 0.07076642662286758
  z: 0.0
angular:
  x: 0.0
  y: 0.0
  z: 0.2425001859664917
---
linear:
  x: 0.14227454364299774
  y: 0.07009173184633255
  z: 0.0
angular:
  x: 0.0
  y: 0.0
  z: 0.23920568823814392
---
linear:
  x: 0.1355198621749878
  y: 0.07089313864707947
  z: 0.0
angular:
  x: 0.0
  y: 0.0
  z: 0.23522989451885223
---
linear:
  x: 0.14061325788497925
  y: 0.06943260133266449
  z: 0.0
angular:
  x: 0.0
  y: 0.0
  z: 0.22926431894302368
---
linear:
  x: 0.14308471977710724
  y: 0.0695921927690506
  z: 0.0
angular:
  x: 0.0
  y: 0.0
  z: 0.2281550019979477
---
linear:
  x: 0.14607028663158417
  y: 0.0689677968621254
  z: 0.0
angular:
  x: 0.0
  y: 0.0
  z: 0.22345377504825592
---
linear:
  x: 0.14564962685108185
  y: 0.06883871555328369
  z: 0.0
angular:
  x: 0.0
  y: 0.0
  z: 0.21798254549503326
---
linear:
  x: 0.1450985223054886
  y: 0.06808511167764664
  z: 0.0
angular:
  x: 0.0
  y: 0.0
  z: 0.20787467062473297
---
linear:
  x: 0.14342457056045532
  y: 0.06897745281457901
  z: 0.0
angular:
  x: 0.0
  y: 0.0
  z: 0.2084246724843979
---
linear:
  x: 0.14210255444049835
  y: 0.06931546330451965
  z: 0.0
angular:
  x: 0.0
  y: 0.0
  z: 0.20884482562541962
---
linear:
  x: 0.13999049365520477
  y: 0.07070811837911606
  z: 0.0
angular:
  x: 0.0
  y: 0.0
  z: 0.21340622007846832
---
linear:
  x: 0.14050491154193878
  y: 0.07117960602045059
  z: 0.0
angular:
  x: 0.0
  y: 0.0
  z: 0.21564576029777527
---
linear:
  x: 0.14140519499778748
  y: 0.07266613841056824
  z: 0.0
angular:
  x: 0.0
  y: 0.0
  z: 0.2202480435371399
---
linear:
  x: 0.1421339362859726
  y: 0.07333596050739288
  z: 0.0
angular:
  x: 0.0
  y: 0.0
  z: 0.2171267420053482
---
linear:
  x: 0.14097881317138672
  y: 0.07520557194948196
  z: 0.0
angular:
  x: 0.0
  y: 0.0
  z: 0.21479074656963348
---
linear:
  x: 0.13722002506256104
  y: 0.07561109960079193
  z: 0.0
angular:
  x: 0.0
  y: 0.0
  z: 0.20385527610778809
---
linear:
  x: 0.1316559761762619
  y: 0.07643423229455948
  z: 0.0
angular:
  x: 0.0
  y: 0.0
  z: 0.19593705236911774
---
linear:
  x: 0.12203384190797806
  y: 0.07781024277210236
  z: 0.0
angular:
  x: 0.0
  y: 0.0
  z: 0.1916419118642807
---
linear:
  x: 0.127005472779274
  y: 0.07584498822689056
  z: 0.0
angular:
  x: 0.0
  y: 0.0
  z: 0.19316354393959045
---
linear:
  x: 0.13117900490760803
  y: 0.07143624126911163
  z: 0.0
angular:
  x: 0.0
  y: 0.0
  z: 0.18311052024364471
---
linear:
  x: 0.13609465956687927
  y: 0.06872270256280899
  z: 0.0
angular:
  x: 0.0
  y: 0.0
  z: 0.17867614328861237
---
linear:
  x: 0.138632670044899
  y: 0.06646458804607391
  z: 0.0
angular:
  x: 0.0
  y: 0.0
  z: 0.16948071122169495
---
linear:
  x: 0.13936778903007507
  y: 0.0655985027551651
  z: 0.0
angular:
  x: 0.0
  y: 0.0
  z: 0.16714729368686676
---
linear:
  x: 0.13965792953968048
  y: 0.06529837846755981
  z: 0.0
angular:
  x: 0.0
  y: 0.0
  z: 0.16190971434116364
---
linear:
  x: 0.13895283639431
  y: 0.06640897691249847
  z: 0.0
angular:
  x: 0.0
  y: 0.0
  z: 0.16028109192848206
---
linear:
  x: 0.13807372748851776
  y: 0.06701069325208664
  z: 0.0
angular:
  x: 0.0
  y: 0.0
  z: 0.1561989188194275
---
linear:
  x: 0.13518793880939484
  y: 0.06807486712932587
  z: 0.0
angular:
  x: 0.0
  y: 0.0
  z: 0.1570749133825302
---
linear:
  x: 0.13226690888404846
  y: 0.06859433650970459
  z: 0.0
angular:
  x: 0.0
  y: 0.0
  z: 0.15652859210968018
---
linear:
  x: 0.1293645203113556
  y: 0.06991079449653625
  z: 0.0
angular:
  x: 0.0
  y: 0.0
  z: 0.15811514854431152
---
linear:
  x: 0.12435336410999298
  y: 0.07037287950515747
  z: 0.0
angular:
  x: 0.0
  y: 0.0
  z: 0.15410993993282318
---
linear:
  x: 0.1184496283531189
  y: 0.07124905288219452
  z: 0.0
angular:
  x: 0.0
  y: 0.0
  z: 0.15873347222805023
---
linear:
  x: 0.10782872885465622
  y: 0.0726170763373375
  z: 0.0
angular:
  x: 0.0
  y: 0.0
  z: 0.164748877286911
---
linear:
  x: 0.09678954631090164
  y: 0.07525471597909927
  z: 0.0
angular:
  x: 0.0
  y: 0.0
  z: 0.16866230964660645
---
linear:
  x: 0.08666449785232544
  y: 0.07682181894779205
  z: 0.0
angular:
  x: 0.0
  y: 0.0
  z: 0.16743148863315582
---
linear:
  x: 0.07612334936857224
  y: 0.07881245017051697
  z: 0.0
angular:
  x: 0.0
  y: 0.0
  z: 0.16701313853263855
---
linear:
  x: 0.09271559119224548
  y: 0.07364782691001892
  z: 0.0
angular:
  x: 0.0
  y: 0.0
  z: 0.14712223410606384
---
linear:
  x: 0.10684314370155334
  y: 0.06989627331495285
  z: 0.0
angular:
  x: 0.0
  y: 0.0
  z: 0.14318741858005524
---
linear:
  x: 0.12048622965812683
  y: 0.06455757468938828
  z: 0.0
angular:
  x: 0.0
  y: 0.0
  z: 0.1299390196800232
---
linear:
  x: 0.13045863807201385
  y: 0.06204846873879433
  z: 0.0
angular:
  x: 0.0
  y: 0.0
  z: 0.1264323890209198
---
linear:
  x: 0.13423818349838257
  y: 0.060524798929691315
  z: 0.0
angular:
  x: 0.0
  y: 0.0
  z: 0.12522712349891663
---
linear:
  x: 0.13536730408668518
  y: 0.06170116364955902
  z: 0.0
angular:
  x: 0.0
  y: 0.0
  z: 0.12574906647205353
---
linear:
  x: 0.1317175328731537
  y: 0.06070698797702789
  z: 0.0
angular:
  x: 0.0
  y: 0.0
  z: 0.11614575237035751
---
linear:
  x: 0.1343601644039154
  y: 0.0591144934296608
  z: 0.0
angular:
  x: 0.0
  y: 0.0
  z: 0.10957752168178558
---
linear:
  x: 0.13532988727092743
  y: 0.05786016955971718
  z: 0.0
angular:
  x: 0.0
  y: 0.0
  z: 0.10175015777349472
---
linear:
  x: 0.13725516200065613
  y: 0.0578533299267292
  z: 0.0
angular:
  x: 0.0
  y: 0.0
  z: 0.09854268282651901
---
linear:
  x: 0.1370125114917755
  y: 0.05737452954053879
  z: 0.0
angular:
  x: 0.0
  y: 0.0
  z: 0.0925687924027443
---
linear:
  x: 0.1427551954984665
  y: 0.0559130422770977
  z: 0.0
angular:
  x: 0.0
  y: 0.0
  z: 0.08448205888271332
---
linear:
  x: 0.14551232755184174
  y: 0.053099438548088074
  z: 0.0
angular:
  x: 0.0
  y: 0.0
  z: 0.07336737215518951
---
linear:
  x: 0.14776216447353363
  y: 0.05138145759701729
  z: 0.0
angular:
  x: 0.0
  y: 0.0
  z: 0.06723670661449432
---
linear:
  x: 0.1456197053194046
  y: 0.04998405650258064
  z: 0.0
angular:
  x: 0.0
  y: 0.0
  z: 0.060507893562316895
---
linear:
  x: 0.14863024652004242
  y: 0.047011032700538635
  z: 0.0
angular:
  x: 0.0
  y: 0.0
  z: 0.05887405574321747
---
linear:
  x: 0.1514367312192917
  y: 0.045225296169519424
  z: 0.0
angular:
  x: 0.0
  y: 0.0
  z: 0.051144834607839584
---
linear:
  x: 0.1524457335472107
  y: 0.04497383162379265
  z: 0.0
angular:
  x: 0.0
  y: 0.0
  z: 0.04830898344516754
---
linear:
  x: 0.15024596452713013
  y: 0.04468780755996704
  z: 0.0
angular:
  x: 0.0
  y: 0.0
  z: 0.04362448677420616
---
linear:
  x: 0.1537335366010666
  y: 0.04236103966832161
  z: 0.0
angular:
  x: 0.0
  y: 0.0
  z: 0.039941467344760895
---
linear:
  x: 0.1571885049343109
  y: 0.04115218669176102
  z: 0.0
angular:
  x: 0.0
  y: 0.0
  z: 0.032790347933769226
---
linear:
  x: 0.15890929102897644
  y: 0.04103083908557892
  z: 0.0
angular:
  x: 0.0
  y: 0.0
  z: 0.027465688064694405
---
linear:
  x: 0.15703290700912476
  y: 0.04136399179697037
  z: 0.0
angular:
  x: 0.0
  y: 0.0
  z: 0.025309283286333084
---
linear:
  x: 0.15261615812778473
  y: 0.042676955461502075
  z: 0.0
angular:
  x: 0.0
  y: 0.0
  z: 0.02804579585790634
---
linear:
  x: 0.15474697947502136
  y: 0.041452668607234955
  z: 0.0
angular:
  x: 0.0
  y: 0.0
  z: 0.02245488576591015
---
linear:
  x: 0.15583567321300507
  y: 0.04110010713338852
  z: 0.0
angular:
  x: 0.0
  y: 0.0
  z: 0.020142074674367905
---
linear:
  x: 0.15522372722625732
  y: 0.04023268446326256
  z: 0.0
angular:
  x: 0.0
  y: 0.0
  z: 0.016051094979047775
---
linear:
  x: 0.15626071393489838
  y: 0.039473339915275574
  z: 0.0
angular:
  x: 0.0
  y: 0.0
  z: 0.019363142549991608
---
linear:
  x: 0.1551288664340973
  y: 0.03881615400314331
  z: 0.0
angular:
  x: 0.0
  y: 0.0
  z: 0.022879745811223984
---
linear:
  x: 0.16021934151649475
  y: 0.03685036301612854
  z: 0.0
angular:
  x: 0.0
  y: 0.0
  z: 0.01655084453523159
---
linear:
  x: 0.17526015639305115
  y: 0.031083624809980392
  z: 0.0
angular:
  x: 0.0
  y: 0.0
  z: -0.0018684887327253819
---
linear:
  x: 0.18942581117153168
  y: 0.02584926038980484
  z: 0.0
angular:
  x: 0.0
  y: 0.0
  z: -0.02804333157837391
---
linear:
  x: 0.2052335888147354
  y: 0.018308263272047043
  z: 0.0
angular:
  x: 0.0
  y: 0.0
  z: -0.05957649648189545
---
linear:
  x: 0.21520940959453583
  y: 0.009215970523655415
  z: 0.0
angular:
  x: 0.0
  y: 0.0
  z: -0.09406810998916626
---
linear:
  x: 0.22312720119953156
  y: 0.0020112497732043266
  z: 0.0
angular:
  x: 0.0
  y: 0.0
  z: -0.11225351691246033
---
linear:
  x: 0.22945058345794678
  y: -0.00397247401997447
  z: 0.0
angular:
  x: 0.0
  y: 0.0
  z: -0.1290261596441269
---
linear:
  x: 0.23570340871810913
  y: -0.009094859473407269
  z: 0.0
angular:
  x: 0.0
  y: 0.0
  z: -0.13726986944675446
---
linear:
  x: 0.2437276691198349
  y: -0.014634191058576107
  z: 0.0
angular:
  x: 0.0
  y: 0.0
  z: -0.15329676866531372
---
linear:
  x: 0.2540186047554016
  y: -0.01872970722615719
  z: 0.0
angular:
  x: 0.0
  y: 0.0
  z: -0.1722358912229538
---
linear:
  x: 0.25974202156066895
  y: -0.022076129913330078
  z: 0.0
angular:
  x: 0.0
  y: 0.0
  z: -0.18530981242656708
---
linear:
  x: 0.26416319608688354
  y: -0.025672703981399536
  z: 0.0
angular:
  x: 0.0
  y: 0.0
  z: -0.2032025307416916
---
linear:
  x: 0.2688242197036743
  y: -0.02738468162715435
  z: 0.0
angular:
  x: 0.0
  y: 0.0
  z: -0.224351704120636
---
linear:
  x: 0.2714082896709442
  y: -0.03125932440161705
  z: 0.0
angular:
  x: 0.0
  y: 0.0
  z: -0.24617412686347961
---
linear:
  x: 0.27207639813423157
  y: -0.03451690077781677
  z: 0.0
angular:
  x: 0.0
  y: 0.0
  z: -0.2595297694206238
---
linear:
  x: 0.2717394530773163
  y: -0.037783943116664886
  z: 0.0
angular:
  x: 0.0
  y: 0.0
  z: -0.27584147453308105
---
linear:
  x: 0.27283307909965515
  y: -0.041411399841308594
  z: 0.0
angular:
  x: 0.0
  y: 0.0
  z: -0.289286732673645
---
linear:
  x: 0.2737411856651306
  y: -0.04417765885591507
  z: 0.0
angular:
  x: 0.0
  y: 0.0
  z: -0.30707353353500366
---
linear:
  x: 0.2769092619419098
  y: -0.04876980558037758
  z: 0.0
angular:
  x: 0.0
  y: 0.0
  z: -0.32423675060272217
---
linear:
  x: 0.27588582038879395
  y: -0.05379915237426758
  z: 0.0
angular:
  x: 0.0
  y: 0.0
  z: -0.34131279587745667
---
linear:
  x: 0.2763763666152954
  y: -0.05738535895943642
  z: 0.0
angular:
  x: 0.0
  y: 0.0
  z: -0.34990596771240234
---
linear:
  x: 0.27408450841903687
  y: -0.05982916057109833
  z: 0.0
angular:
  x: 0.0
  y: 0.0
  z: -0.3617357909679413
---
linear:
  x: 0.2735374867916107
  y: -0.060528866946697235
  z: 0.0
angular:
  x: 0.0
  y: 0.0
  z: -0.3684183955192566
---
linear:
  x: 0.2699376940727234
  y: -0.06362871825695038
  z: 0.0
angular:
  x: 0.0
  y: 0.0
  z: -0.38283294439315796
---
linear:
  x: 0.2811838388442993
  y: -0.06084391102194786
  z: 0.0
angular:
  x: 0.0
  y: 0.0
  z: -0.3564419150352478
---
linear:
  x: 0.28836217522621155
  y: -0.05945255234837532
  z: 0.0
angular:
  x: 0.0
  y: 0.0
  z: -0.35115140676498413
---
linear:
  x: 0.2962234318256378
  y: -0.057081520557403564
  z: 0.0
angular:
  x: 0.0
  y: 0.0
  z: -0.34838446974754333
---
linear:
  x: 0.2992032766342163
  y: -0.057148952037096024
  z: 0.0
angular:
  x: 0.0
  y: 0.0
  z: -0.35956934094429016
---
linear:
  x: 0.300899475812912
  y: -0.05675783380866051
  z: 0.0
angular:
  x: 0.0
  y: 0.0
  z: -0.366039514541626
---
linear:
  x: 0.29707765579223633
  y: -0.05702689662575722
  z: 0.0
angular:
  x: 0.0
  y: 0.0
  z: -0.3787800371646881
---
linear:
  x: 0.2926905155181885
  y: -0.0577838234603405
  z: 0.0
angular:
  x: 0.0
  y: 0.0
  z: -0.3871009051799774
---
linear:
  x: 0.2851456105709076
  y: -0.059362173080444336
  z: 0.0
angular:
  x: 0.0
  y: 0.0
  z: -0.39821657538414
---
linear:
  x: 0.2777818739414215
  y: -0.062141161412000656
  z: 0.0
angular:
  x: 0.0
  y: 0.0
  z: -0.40993356704711914
---
linear:
  x: 0.2675777077674866
  y: -0.0662980005145073
  z: 0.0
angular:
  x: 0.0
  y: 0.0
  z: -0.4298412799835205
---
linear:
  x: 0.2629672586917877
  y: -0.06915148347616196
  z: 0.0
angular:
  x: 0.0
  y: 0.0
  z: -0.4435442388057709
---
linear:
  x: 0.25820106267929077
  y: -0.07359591871500015
  z: 0.0
angular:
  x: 0.0
  y: 0.0
  z: -0.46032893657684326
---
linear:
  x: 0.25684794783592224
  y: -0.07596349716186523
  z: 0.0
angular:
  x: 0.0
  y: 0.0
  z: -0.46651598811149597
---
linear:
  x: 0.252231240272522
  y: -0.07828371971845627
  z: 0.0
angular:
  x: 0.0
  y: 0.0
  z: -0.47808340191841125
---
linear:
  x: 0.24767914414405823
  y: -0.07967044413089752
  z: 0.0
angular:
  x: 0.0
  y: 0.0
  z: -0.47525328397750854
---
linear:
  x: 0.23993521928787231
  y: -0.08157536387443542
  z: 0.0
angular:
  x: 0.0
  y: 0.0
  z: -0.48106086254119873
---
linear:
  x: 0.23140795528888702
  y: -0.08404110372066498
  z: 0.0
angular:
  x: 0.0
  y: 0.0
  z: -0.4791099429130554
---
linear:
  x: 0.22153227031230927
  y: -0.08700074255466461
  z: 0.0
angular:
  x: 0.0
  y: 0.0
  z: -0.48497334122657776
---
linear:
  x: 0.21654599905014038
  y: -0.08999411016702652
  z: 0.0
angular:
  x: 0.0
  y: 0.0
  z: -0.48600655794143677
---
linear:
  x: 0.21371525526046753
  y: -0.09235301613807678
  z: 0.0
angular:
  x: 0.0
  y: 0.0
  z: -0.4826311469078064
---
linear:
  x: 0.21504119038581848
  y: -0.09287045150995255
  z: 0.0
angular:
  x: 0.0
  y: 0.0
  z: -0.46753889322280884
---
linear:
  x: 0.22078153491020203
  y: -0.0916103795170784
  z: 0.0
angular:
  x: 0.0
  y: 0.0
  z: -0.47037357091903687
---
linear:
  x: 0.22406351566314697
  y: -0.08906242996454239
  z: 0.0
angular:
  x: 0.0
  y: 0.0
  z: -0.47276878356933594
---
linear:
  x: 0.22066505253314972
  y: -0.08749809861183167
  z: 0.0
angular:
  x: 0.0
  y: 0.0
  z: -0.48423442244529724
---
linear:
  x: 0.2194996029138565
  y: -0.08697466552257538
  z: 0.0
angular:
  x: 0.0
  y: 0.0
  z: -0.49214690923690796
---
linear:
  x: 0.2146252989768982
  y: -0.086936816573143
  z: 0.0
angular:
  x: 0.0
  y: 0.0
  z: -0.5005456805229187
---
linear:
  x: 0.2111358940601349
  y: -0.08763451129198074
  z: 0.0
angular:
  x: 0.0
  y: 0.0
  z: -0.4959731698036194
---
linear:
  x: 0.2030830681324005
  y: -0.08900376409292221
  z: 0.0
angular:
  x: 0.0
  y: 0.0
  z: -0.4965246021747589
---
linear:
  x: 0.19729334115982056
  y: -0.09063627570867538
  z: 0.0
angular:
  x: 0.0
  y: 0.0
  z: -0.4927498996257782
---
linear:
  x: 0.19608139991760254
  y: -0.0921439602971077
  z: 0.0
angular:
  x: 0.0
  y: 0.0
  z: -0.48878252506256104
---
linear:
  x: 0.19708412885665894
  y: -0.09294996410608292
  z: 0.0
angular:
  x: 0.0
  y: 0.0
  z: -0.4810827672481537
---
linear:
  x: 0.19411879777908325
  y: -0.09366608411073685
  z: 0.0
angular:
  x: 0.0
  y: 0.0
  z: -0.47790035605430603
---
linear:
  x: 0.1916791945695877
  y: -0.0942845344543457
  z: 0.0
angular:
  x: 0.0
  y: 0.0
  z: -0.4734472930431366
---
linear:
  x: 0.18799950182437897
  y: -0.09419739991426468
  z: 0.0
angular:
  x: 0.0
  y: 0.0
  z: -0.47688111662864685
---
linear:
  x: 0.18486492335796356
  y: -0.09350935369729996
  z: 0.0
angular:
  x: 0.0
  y: 0.0
  z: -0.4782279133796692
---
linear:
  x: 0.1796824038028717
  y: -0.09460680186748505
  z: 0.0
angular:
  x: 0.0
  y: 0.0
  z: -0.4853547513484955
---
linear:
  x: 0.17690148949623108
  y: -0.09513122588396072
  z: 0.0
angular:
  x: 0.0
  y: 0.0
  z: -0.48636192083358765
---
linear:
  x: 0.1750607192516327
  y: -0.09597889333963394
  z: 0.0
angular:
  x: 0.0
  y: 0.0
  z: -0.4864504635334015
---
linear:
  x: 0.1728428453207016
  y: -0.09719166159629822
  z: 0.0
angular:
  x: 0.0
  y: 0.0
  z: -0.4799039959907532
---
linear:
  x: 0.16715702414512634
  y: -0.09822952747344971
  z: 0.0
angular:
  x: 0.0
  y: 0.0
  z: -0.48110437393188477
---
linear:
  x: 0.16527746617794037
  y: -0.09763354063034058
  z: 0.0
angular:
  x: 0.0
  y: 0.0
  z: -0.46402278542518616
---
linear:
  x: 0.1712271124124527
  y: -0.0935455784201622
  z: 0.0
angular:
  x: 0.0
  y: 0.0
  z: -0.4451090097427368
---
linear:
  x: 0.17686955630779266
  y: -0.08861032128334045
  z: 0.0
angular:
  x: 0.0
  y: 0.0
  z: -0.42709022760391235
---
linear:
  x: 0.1901121288537979
  y: -0.08342983573675156
  z: 0.0
angular:
  x: 0.0
  y: 0.0
  z: -0.3940870761871338
---
linear:
  x: 0.20067055523395538
  y: -0.07980696111917496
  z: 0.0
angular:
  x: 0.0
  y: 0.0
  z: -0.36590495705604553
---
linear:
  x: 0.20920084416866302
  y: -0.07668600231409073
  z: 0.0
angular:
  x: 0.0
  y: 0.0
  z: -0.34173962473869324
---
linear:
  x: 0.21579886972904205
  y: -0.07391359657049179
  z: 0.0
angular:
  x: 0.0
  y: 0.0
  z: -0.3216645121574402
---
linear:
  x: 0.22047989070415497
  y: -0.07146094739437103
  z: 0.0
angular:
  x: 0.0
  y: 0.0
  z: -0.3055070638656616
---
linear:
  x: 0.22408147156238556
